,City,Country Code,City_Number,Lat,Lng,Temp_F,Humidity (%),Cloudiness (%),Wind Speed (mph)
0,hargeysa,so,57289,9.56,44.06,76.49,38.0,36.0,6.96
1,hermanus,za,3366880,-34.42,19.24,66.34,79.0,20.0,8.99
2,codrington,ag,,,,,,,
3,amapa,br,3401225,-1.83,-56.23,93.95,52.0,20.0,4.05
4,east london,za,1006984,-33.02,27.91,60.8,93.0,40.0,3.36
5,port alfred,za,964432,-33.59,26.89,64.0,84.0,48.0,5.99
6,tura,ru,2014833,64.27,100.22,23.75,74.0,88.0,2.48
7,nikolskoye,ru,546105,59.7,30.79,35.51,55.0,0.0,4.47
8,vaini,to,4032243,-21.2,-175.2,75.2,83.0,20.0,8.05
9,busselton,au,2075265,-33.64,115.35,58.24,44.0,0.0,22.28
10,lazaro cardenas,mx,3996234,28.39,-105.62,75.0,16.0,32.0,8.99
11,ilulissat,gl,3423146,69.22,-51.1,37.4,69.0,75.0,24.16
12,nanortalik,gl,3421765,60.14,-45.24,33.65,93.0,92.0,25.86
13,busselton,au,2075265,-33.64,115.35,58.24,44.0,0.0,22.28
14,klaksvik,fo,2618795,62.23,-6.59,37.4,69.0,44.0,25.28
15,kaitangata,nz,2208248,-46.28,169.85,48.99,64.0,8.0,3.0
16,itapecerica,br,3460752,-20.47,-45.13,80.9,62.0,56.0,4.5
17,nantucket,us,4944903,41.28,-70.1,45.37,45.0,1.0,19.46
18,evensk,ru,2125693,61.92,159.24,31.49,86.0,0.0,11.54
19,hermanus,za,3366880,-34.42,19.24,66.34,79.0,20.0,8.99
20,ruatoria,nz,,,,,,,
21,henties bay,na,3356832,-22.12,14.28,62.01,84.0,0.0,5.99
22,atuona,pf,4020109,-9.8,-139.03,81.98,100.0,0.0,12.21
23,ribeira grande,pt,3372707,38.52,-28.7,60.8,59.0,20.0,13.87
24,polyarnyy,ru,506763,69.2,33.45,39.2,60.0,75.0,4.47
25,bethanien,na,3358416,-26.5,17.16,81.35,24.0,76.0,4.5
26,berlevag,no,780687,70.86,29.09,29.82,100.0,75.0,9.17
27,punta arenas,cl,3874787,-53.16,-70.91,54.55,50.0,40.0,29.97
28,busselton,au,2075265,-33.64,115.35,58.24,44.0,0.0,22.28
29,chuy,uy,3443061,-33.69,-53.46,80.9,82.0,32.0,7.4
30,hinton,ca,5975503,53.4,-117.57,40.94,41.0,32.0,3.04
31,rikitea,pf,4030556,-23.12,-134.97,75.68,100.0,92.0,15.79
32,ribeira brava,cv,,,,,,,
33,delijan,ir,136399,33.99,50.69,39.41,61.0,8.0,4.94
34,punta arenas,cl,3874787,-53.16,-70.91,54.55,50.0,40.0,29.97
35,hobart,au,2163355,-42.88,147.33,58.19,62.0,0.0,8.05
36,pevek,ru,2122090,69.7,170.27,19.97,75.0,20.0,14.12
37,svetlyy,ru,,,,,,,
38,codrington,ag,,,,,,,
39,hermanus,za,3366880,-34.42,19.24,66.34,79.0,20.0,8.99
40,khorramshahr,ir,127319,30.43,48.18,72.34,31.0,0.0,9.17
41,mount gambier,au,2156643,-37.83,140.78,55.4,66.0,44.0,10.29
42,cidreira,br,3466165,-30.17,-50.22,83.6,76.0,20.0,2.71
43,vaini,to,4032243,-21.2,-175.2,75.2,83.0,20.0,8.05
44,cody,us,5821593,44.53,-109.06,38.28,69.0,90.0,5.82
45,calama,cl,3897347,-22.46,-68.93,73.0,37.0,20.0,23.04
46,matagami,ca,6067747,49.76,-77.63,30.2,86.0,90.0,13.87
47,bathsheba,bb,3374083,13.22,-59.52,86.0,55.0,20.0,26.4
48,cape town,za,3369157,-33.93,18.42,67.53,49.0,0.0,11.41
49,naifaru,mv,1337616,5.44,73.37,84.05,100.0,88.0,2.59
50,barentsburg,sj,,,,,,,
51,avarua,ck,4035715,-21.21,-159.78,78.8,83.0,8.0,18.34
52,meiktila,mm,1309793,20.88,95.86,68.12,90.0,0.0,4.38
53,alvaraes,br,3665380,-3.22,-64.8,82.4,83.0,75.0,6.93
54,port elizabeth,za,964420,-33.92,25.57,64.4,77.0,75.0,14.99
55,nantucket,us,4944903,41.28,-70.1,45.37,45.0,1.0,19.46
56,hithadhoo,mv,1282256,-0.6,73.08,84.59,100.0,32.0,7.4
57,belushya guba,ru,,,,,,,
58,high level,ca,5975004,58.52,-117.13,26.6,42.0,75.0,6.93
59,belushya guba,ru,,,,,,,
60,hobart,au,2163355,-42.88,147.33,58.19,62.0,0.0,8.05
61,mombetsu,jp,2129163,44.35,143.35,21.99,73.0,8.0,5.99
62,albany,au,2077963,-35.02,117.88,59.0,93.0,75.0,9.17
63,barrow,us,4252975,39.51,-90.4,55.06,64.0,90.0,16.11
64,severo-kurilsk,ru,2121385,50.68,156.12,30.77,99.0,88.0,18.7
65,coolum beach,au,2170581,-26.53,153.09,65.34,96.0,92.0,8.75
66,ngunguru,nz,2186111,-35.62,174.5,50.0,93.0,0.0,10.98
67,nantucket,us,4944903,41.28,-70.1,45.37,45.0,1.0,19.46
68,padang,id,1633419,-0.92,100.36,84.05,100.0,24.0,4.61
69,east london,za,1006984,-33.02,27.91,60.8,93.0,40.0,3.36
70,tsihombe,mg,,,,,,,
71,ponta delgada,pt,3372783,37.73,-25.67,55.67,71.0,40.0,19.46
72,ushuaia,ar,3833367,-54.81,-68.31,51.8,62.0,20.0,23.04
73,sabang,id,1623502,1.17,120.82,80.99,100.0,8.0,1.36
74,issum,de,2895617,51.53,6.42,55.0,93.0,90.0,5.82
75,lata,sb,,,,,,,
76,punta arenas,cl,3874787,-53.16,-70.91,54.55,50.0,40.0,29.97
77,monrovia,lr,2274895,6.33,-10.8,91.4,59.0,40.0,8.05
78,sassandra,ci,2281951,4.95,-6.09,85.22,93.0,36.0,10.76
79,tiksi,ru,2015306,71.64,128.87,4.94,75.0,48.0,2.37
80,umzimvubu,za,,,,,,,
81,zhigansk,ru,2012530,66.77,123.37,26.09,77.0,48.0,7.52
82,katsuura,jp,1865309,33.93,134.5,39.43,86.0,20.0,6.93
83,constitucion,mx,4011743,23.99,-104.67,71.01,17.0,24.0,5.01
84,sola,vu,2134814,-13.88,167.55,81.26,100.0,92.0,5.17
85,klaksvik,fo,2618795,62.23,-6.59,37.4,69.0,44.0,25.28
86,talnakh,ru,1490256,69.49,88.39,17.0,72.0,48.0,3.04
87,bambous virieux,mu,1106677,-20.34,57.76,77.92,78.0,20.0,7.4
88,upernavik,gl,3418910,72.79,-56.15,14.03,100.0,44.0,19.04
89,punta arenas,cl,3874787,-53.16,-70.91,54.55,50.0,40.0,29.97
90,hermanus,za,3366880,-34.42,19.24,66.34,79.0,20.0,8.99
91,ouadda,cf,236901,8.07,22.4,87.29,31.0,8.0,5.73
92,lebu,cl,3883457,-37.62,-73.65,58.13,87.0,0.0,22.62
93,esil,kz,1524296,51.96,66.41,38.69,85.0,76.0,9.98
94,iqaluit,ca,5983720,63.75,-68.52,-4.69,70.0,90.0,29.97
95,new norfolk,au,2155415,-42.78,147.06,58.19,62.0,0.0,8.05
96,lompoc,us,5367788,34.64,-120.46,60.87,72.0,40.0,5.17
97,barrow,us,4252975,39.51,-90.4,55.06,64.0,90.0,16.11
98,puerto leguizamo,co,3671437,-0.19,-74.78,80.36,86.0,80.0,3.38
99,albany,au,2077963,-35.02,117.88,59.0,93.0,75.0,9.17
100,taolanaro,mg,,,,,,,
101,santa cruz de tenerife,es,2511174,28.47,-16.25,60.82,100.0,75.0,6.93
102,rikitea,pf,4030556,-23.12,-134.97,75.68,100.0,92.0,15.79
103,bethel,us,5880568,60.79,-161.76,27.52,100.0,1.0,8.05
104,aneho,tg,2367990,6.23,1.6,87.8,79.0,20.0,11.41
105,adet,et,345353,11.26,37.49,63.35,60.0,8.0,1.36
106,port antonio,jm,3489005,18.18,-76.45,86.0,58.0,20.0,6.93
107,albany,au,2077963,-35.02,117.88,59.0,93.0,75.0,9.17
108,castro,cl,3896218,-42.48,-73.76,59.0,67.0,75.0,8.05
109,baft,ir,390054,29.23,56.61,44.09,80.0,88.0,5.5
110,khatanga,ru,2022572,71.98,102.47,19.7,92.0,68.0,6.73
111,carnarvon,au,2074865,-24.87,113.63,77.0,78.0,12.0,11.41
112,karratha,au,6620339,-20.74,116.85,71.27,89.0,0.0,3.04
113,shingu,jp,1847947,33.72,135.99,47.69,100.0,12.0,16.46
114,avarua,ck,4035715,-21.21,-159.78,78.8,83.0,8.0,18.34
115,haibowan,cn,,,,,,,
116,komsomolskiy,ru,1486910,67.55,63.78,23.48,85.0,88.0,12.77
117,wahpeton,us,5062355,46.27,-96.61,38.35,80.0,90.0,17.22
118,punta arenas,cl,3874787,-53.16,-70.91,54.55,50.0,40.0,29.97
119,colquechaca,bo,3919720,-18.7,-66.0,59.48,65.0,48.0,1.7
120,julio de castilhos,br,3459495,-29.23,-53.68,86.0,66.0,20.0,2.24
121,punta arenas,cl,3874787,-53.16,-70.91,54.55,50.0,40.0,29.97
122,puerto ayora,ec,3652764,-0.74,-90.35,83.88,70.0,20.0,10.29
123,ribeira grande,pt,3372707,38.52,-28.7,60.8,59.0,20.0,13.87
124,bluff,nz,2206939,-46.6,168.33,44.01,91.0,56.0,11.21
125,jamestown,sh,3370903,-15.94,-5.72,77.21,99.0,92.0,16.13
126,auki,sb,2109701,-8.77,160.7,77.75,100.0,88.0,3.71
127,noumea,nc,2139521,-22.28,166.46,69.8,83.0,0.0,3.36
128,albany,au,2077963,-35.02,117.88,59.0,93.0,75.0,9.17
129,mataura,pf,,,,,,,
130,busselton,au,2075265,-33.64,115.35,58.24,44.0,0.0,22.28
131,castro,cl,3896218,-42.48,-73.76,59.0,67.0,75.0,8.05
132,gubkinskiy,ru,1539209,64.43,76.5,25.37,90.0,80.0,14.79
133,cape town,za,3369157,-33.93,18.42,67.53,49.0,0.0,11.41
134,bluff,nz,2206939,-46.6,168.33,44.01,91.0,56.0,11.21
135,tabuk,sa,101628,28.38,36.58,66.2,22.0,40.0,11.41
136,bethel,us,5880568,60.79,-161.76,27.52,100.0,1.0,8.05
137,barentsburg,sj,,,,,,,
138,bolungarvik,is,,,,,,,
139,erenhot,cn,2037485,43.65,111.97,24.47,68.0,0.0,5.06
140,grand gaube,mu,934479,-20.01,57.66,78.3,78.0,20.0,10.09
141,khani,ru,,,,,,,
142,airai,pw,,,,,,,
143,yellowknife,ca,6185377,62.45,-114.38,5.72,71.0,20.0,14.99
144,hithadhoo,mv,1282256,-0.6,73.08,84.59,100.0,32.0,7.4
145,sao paulo de olivenca,br,3662252,-3.38,-68.87,94.85,51.0,0.0,2.04
146,hilo,us,5855927,19.71,-155.08,67.84,72.0,40.0,5.82
147,mizdah,ly,2214827,31.45,12.98,61.91,53.0,0.0,9.53
148,yellowknife,ca,6185377,62.45,-114.38,5.72,71.0,20.0,14.99
149,hilo,us,5855927,19.71,-155.08,67.84,72.0,40.0,5.82
150,port blair,in,1259385,11.67,92.75,84.59,100.0,0.0,1.92
151,ilulissat,gl,3423146,69.22,-51.1,37.4,69.0,75.0,24.16
152,bredy,ru,1508811,52.43,60.33,37.07,81.0,88.0,12.55
153,tuggurt,dz,,,,,,,
154,yellowknife,ca,6185377,62.45,-114.38,5.72,71.0,20.0,14.99
155,albany,au,2077963,-35.02,117.88,59.0,93.0,75.0,9.17
156,port elizabeth,za,964420,-33.92,25.57,64.4,77.0,75.0,14.99
157,barentsburg,sj,,,,,,,
158,saint-philippe,re,935215,-21.36,55.77,75.92,61.0,0.0,4.7
159,katsuura,jp,1865309,33.93,134.5,39.43,86.0,20.0,6.93
160,tasiilaq,gl,3424607,65.61,-37.64,23.0,85.0,90.0,20.8
161,kisangani,cd,212730,0.52,25.21,82.7,80.0,8.0,0.92
162,lorengau,pg,2092164,-2.02,147.27,83.42,96.0,76.0,11.1
163,karpogory,ru,552256,64.0,44.44,32.39,76.0,0.0,6.51
164,oktyabrskiy,ru,515873,55.61,37.97,40.03,44.0,0.0,6.71
165,cape town,za,3369157,-33.93,18.42,67.53,49.0,0.0,11.41
166,yellowknife,ca,6185377,62.45,-114.38,5.72,71.0,20.0,14.99
167,rikitea,pf,4030556,-23.12,-134.97,75.68,100.0,92.0,15.79
168,mataura,pf,,,,,,,
169,busselton,au,2075265,-33.64,115.35,58.24,44.0,0.0,22.28
170,rikitea,pf,4030556,-23.12,-134.97,75.68,100.0,92.0,15.79
171,sibu,my,1735902,2.29,111.83,77.0,94.0,75.0,2.24
172,new norfolk,au,2155415,-42.78,147.06,58.19,62.0,0.0,8.05
173,lompoc,us,5367788,34.64,-120.46,60.87,72.0,40.0,5.17
174,tabiauea,ki,,,,,,,
175,new norfolk,au,2155415,-42.78,147.06,58.19,62.0,0.0,8.05
176,skiros,gr,,,,,,,
177,saquarema,br,3448011,-22.93,-42.51,83.68,45.0,20.0,5.82
178,hermanus,za,3366880,-34.42,19.24,66.34,79.0,20.0,8.99
179,saint george,bm,3573061,32.38,-64.68,68.0,77.0,75.0,20.8
180,kuching,my,1735634,1.56,110.34,77.0,94.0,75.0,2.24
181,busselton,au,2075265,-33.64,115.35,58.24,44.0,0.0,22.28
182,imbituva,br,3461368,-25.23,-50.6,78.47,74.0,24.0,6.51
183,campbell river,ca,5914132,50.02,-125.24,53.17,33.0,75.0,6.93
184,kieta,pg,2094027,-6.22,155.63,76.85,100.0,92.0,2.04
185,touros,br,3386213,-5.2,-35.46,89.6,59.0,40.0,10.29
186,asau,tv,,,,,,,
187,sangar,ru,2017215,63.92,127.47,25.46,74.0,80.0,5.73
188,punta arenas,cl,3874787,-53.16,-70.91,54.55,50.0,40.0,29.97
189,taraz,kz,1516905,42.89,71.39,47.16,87.0,90.0,6.71
190,ushuaia,ar,3833367,-54.81,-68.31,51.8,62.0,20.0,23.04
191,kieta,pg,2094027,-6.22,155.63,76.85,100.0,92.0,2.04
192,new norfolk,au,2155415,-42.78,147.06,58.19,62.0,0.0,8.05
193,barrow,us,4252975,39.51,-90.4,55.06,64.0,90.0,16.11
194,castro,cl,3896218,-42.48,-73.76,59.0,67.0,75.0,8.05
195,castro,cl,3896218,-42.48,-73.76,59.0,67.0,75.0,8.05
196,punta arenas,cl,3874787,-53.16,-70.91,54.55,50.0,40.0,29.97
197,the valley,ai,3573374,18.22,-63.06,83.14,58.0,40.0,17.22
198,jamestown,sh,3370903,-15.94,-5.72,77.21,99.0,92.0,16.13
199,atuona,pf,4020109,-9.8,-139.03,81.98,100.0,0.0,12.21
200,port alfred,za,964432,-33.59,26.89,64.0,84.0,48.0,5.99
201,osinovo,ru,577240,62.87,42.79,26.45,80.0,0.0,5.73
202,kahului,us,5847411,20.89,-156.47,68.76,83.0,20.0,10.29
203,rikitea,pf,4030556,-23.12,-134.97,75.68,100.0,92.0,15.79
204,cherskiy,ru,2126199,68.75,161.3,28.97,81.0,92.0,7.4
205,pimentel,pe,3693584,-6.84,-79.94,66.2,29.0,0.0,9.17
206,bredasdorp,za,1015776,-34.53,20.04,63.0,79.0,36.0,8.99
207,guerrero negro,mx,4021858,27.97,-114.04,70.46,51.0,20.0,3.6
208,yarke pole,ua,709334,45.61,34.32,42.74,64.0,0.0,10.09
209,rikitea,pf,4030556,-23.12,-134.97,75.68,100.0,92.0,15.79
210,manzanillo,mx,3996663,19.05,-104.32,80.99,66.0,0.0,3.6
211,thompson,ca,6165406,55.74,-97.86,12.2,66.0,75.0,11.41
212,rikitea,pf,4030556,-23.12,-134.97,75.68,100.0,92.0,15.79
213,puerto ayora,ec,3652764,-0.74,-90.35,83.88,70.0,20.0,10.29
214,bandarbeyla,so,64814,9.49,50.81,79.55,100.0,0.0,5.17
215,bambous virieux,mu,1106677,-20.34,57.76,77.92,78.0,20.0,7.4
216,rikitea,pf,4030556,-23.12,-134.97,75.68,100.0,92.0,15.79
217,ushuaia,ar,3833367,-54.81,-68.31,51.8,62.0,20.0,23.04
218,chokurdakh,ru,2126123,70.62,147.9,3.05,65.0,64.0,2.93
219,nanortalik,gl,3421765,60.14,-45.24,33.65,93.0,92.0,25.86
220,alofi,nu,4036284,-19.06,-169.92,71.6,88.0,68.0,4.7
221,yellowknife,ca,6185377,62.45,-114.38,5.72,71.0,20.0,14.99
222,butaritari,ki,2110227,3.07,172.79,77.21,100.0,76.0,6.06
223,pringsewu,id,1630639,-5.36,104.98,76.4,81.0,32.0,3.49
224,svetlaya,ru,2015852,46.54,138.33,27.89,99.0,0.0,6.17
225,saldanha,za,3361934,-33.01,17.94,65.6,51.0,0.0,11.54
226,kapaa,us,5848280,22.08,-159.32,68.52,78.0,75.0,10.29
227,sao filipe,cv,3374210,14.9,-24.5,71.9,94.0,0.0,13.44
228,malanje,ao,2239862,-9.54,16.35,74.6,80.0,12.0,1.48
229,new norfolk,au,2155415,-42.78,147.06,58.19,62.0,0.0,8.05
230,bredasdorp,za,1015776,-34.53,20.04,63.0,79.0,36.0,8.99
231,bethel,us,5880568,60.79,-161.76,27.52,100.0,1.0,8.05
232,east london,za,1006984,-33.02,27.91,60.8,93.0,40.0,3.36
233,bluff,nz,2206939,-46.6,168.33,44.01,91.0,56.0,11.21
234,rikitea,pf,4030556,-23.12,-134.97,75.68,100.0,92.0,15.79
235,brazzaville,cg,2260535,-4.27,15.28,77.0,88.0,40.0,6.93
236,ola,ru,2122574,59.58,151.3,29.42,82.0,68.0,12.66
237,lebu,cl,3883457,-37.62,-73.65,58.13,87.0,0.0,22.62
238,avera,pf,,,,,,,
239,iqaluit,ca,5983720,63.75,-68.52,-4.69,70.0,90.0,29.97
240,itarema,br,3393692,-2.92,-39.92,81.62,98.0,56.0,5.5
241,bluff,nz,2206939,-46.6,168.33,44.01,91.0,56.0,11.21
242,sisimiut,gl,3419842,66.94,-53.67,29.15,100.0,100.0,3.38
243,olinda,br,3456160,-22.82,-43.41,83.35,61.0,20.0,9.17
244,boguchany,ru,1509844,58.38,97.46,37.07,87.0,80.0,13.56
245,odweyne,so,,,,,,,
246,bay roberts,ca,5895424,47.58,-53.28,37.53,37.0,20.0,29.97
247,hay river,ca,5972762,60.82,-115.79,14.0,61.0,40.0,13.87
248,cape town,za,3369157,-33.93,18.42,67.53,49.0,0.0,11.41
249,port hardy,ca,6111862,50.7,-127.42,48.2,61.0,75.0,4.7
250,rungata,ki,,,,,,,
251,lar,ir,133595,27.66,54.32,62.6,88.0,90.0,6.93
252,lebu,cl,3883457,-37.62,-73.65,58.13,87.0,0.0,22.62
253,faanui,pf,4034551,-16.48,-151.75,84.23,100.0,0.0,11.21
254,jamestown,sh,3370903,-15.94,-5.72,77.21,99.0,92.0,16.13
255,sur,om,286245,22.57,59.53,79.82,82.0,68.0,5.06
256,chapais,ca,5919850,49.78,-74.86,28.4,86.0,90.0,18.34
257,airai,pw,,,,,,,
258,mys shmidta,ru,,,,,,,
259,maningrida,au,2067089,-12.05,134.23,79.73,94.0,68.0,15.01
260,dikson,ru,1507390,73.51,80.55,23.12,98.0,32.0,26.19
261,mahebourg,mu,934322,-20.41,57.7,77.83,78.0,20.0,7.4
262,busselton,au,2075265,-33.64,115.35,58.24,44.0,0.0,22.28
263,rikitea,pf,4030556,-23.12,-134.97,75.68,100.0,92.0,15.79
264,bargal,so,,,,,,,
265,ribeira grande,pt,3372707,38.52,-28.7,60.8,59.0,20.0,13.87
266,kirovskiy,ru,2022064,45.09,133.51,23.12,60.0,12.0,4.16
267,mataura,pf,,,,,,,
268,pevek,ru,2122090,69.7,170.27,19.97,75.0,20.0,14.12
269,lebu,cl,3883457,-37.62,-73.65,58.13,87.0,0.0,22.62
270,mys shmidta,ru,,,,,,,
271,rikitea,pf,4030556,-23.12,-134.97,75.68,100.0,92.0,15.79
272,cianjur,id,1964032,-6.82,107.14,71.72,93.0,64.0,3.38
273,jamestown,sh,3370903,-15.94,-5.72,77.21,99.0,92.0,16.13
274,alice springs,au,2077895,-23.7,133.88,53.6,32.0,0.0,6.62
275,yulara,au,6355222,-25.24,130.99,62.6,23.0,0.0,6.93
276,punta arenas,cl,3874787,-53.16,-70.91,54.55,50.0,40.0,29.97
277,yellowknife,ca,6185377,62.45,-114.38,5.72,71.0,20.0,14.99
278,cape town,za,3369157,-33.93,18.42,67.53,49.0,0.0,11.41
279,severo-kurilsk,ru,2121385,50.68,156.12,30.77,99.0,88.0,18.7
280,busselton,au,2075265,-33.64,115.35,58.24,44.0,0.0,22.28
281,rikitea,pf,4030556,-23.12,-134.97,75.68,100.0,92.0,15.79
282,cape town,za,3369157,-33.93,18.42,67.53,49.0,0.0,11.41
283,vilyuysk,ru,2013392,63.75,121.63,30.14,89.0,64.0,6.17
284,rikitea,pf,4030556,-23.12,-134.97,75.68,100.0,92.0,15.79
285,punta arenas,cl,3874787,-53.16,-70.91,54.55,50.0,40.0,29.97
286,gallup,us,5468773,35.53,-108.74,54.45,26.0,1.0,12.75
287,lagoa,pt,2267254,37.14,-8.45,63.73,77.0,20.0,9.17
288,lagoa,pt,2267254,37.14,-8.45,63.73,77.0,20.0,9.17
289,avarua,ck,4035715,-21.21,-159.78,78.8,83.0,8.0,18.34
290,rikitea,pf,4030556,-23.12,-134.97,75.68,100.0,92.0,15.79
291,mataura,pf,,,,,,,
292,khatanga,ru,2022572,71.98,102.47,19.7,92.0,68.0,6.73
293,hasaki,jp,2112802,35.73,140.83,32.99,64.0,20.0,6.93
294,mataura,pf,,,,,,,
295,ushuaia,ar,3833367,-54.81,-68.31,51.8,62.0,20.0,23.04
296,kapaa,us,5848280,22.08,-159.32,68.52,78.0,75.0,10.29
297,ushuaia,ar,3833367,-54.81,-68.31,51.8,62.0,20.0,23.04
298,tagusao,ph,1684245,9.19,117.81,77.48,97.0,12.0,3.71
299,mataura,pf,,,,,,,
300,vestmannaeyjar,is,3412093,63.44,-20.27,32.0,86.0,0.0,26.4
301,saskylakh,ru,2017155,71.97,114.09,23.39,85.0,80.0,4.05
302,cherskiy,ru,2126199,68.75,161.3,28.97,81.0,92.0,7.4
303,ketchikan,us,5554428,55.34,-131.65,47.05,70.0,1.0,5.82
304,hilo,us,5855927,19.71,-155.08,67.84,72.0,40.0,5.82
305,ardakan,ir,143073,32.31,54.02,69.8,19.0,20.0,13.87
306,sur,om,286245,22.57,59.53,79.82,82.0,68.0,5.06
307,fairbanks,us,5861897,64.84,-147.72,30.13,86.0,1.0,3.6
308,nome,us,4732862,30.04,-94.42,62.33,44.0,1.0,4.94
309,mataura,pf,,,,,,,
310,fort-shevchenko,kz,609906,44.51,50.26,43.64,100.0,92.0,13.56
311,saleaula,ws,,,,,,,
312,masuguru,tz,878054,-11.37,38.42,82.52,54.0,48.0,8.63
313,castro,cl,3896218,-42.48,-73.76,59.0,67.0,75.0,8.05
314,hasaki,jp,2112802,35.73,140.83,32.99,64.0,20.0,6.93
315,ancud,cl,3899695,-41.87,-73.83,59.0,67.0,75.0,8.05
316,ylivieska,fi,630769,64.07,24.53,37.04,72.0,0.0,18.01
317,mataura,pf,,,,,,,
318,cidreira,br,3466165,-30.17,-50.22,83.6,76.0,20.0,2.71
319,esso,ru,2125711,55.93,158.7,19.34,93.0,88.0,2.59
320,punta arenas,cl,3874787,-53.16,-70.91,54.55,50.0,40.0,29.97
321,raudeberg,no,3146487,61.99,5.14,44.85,52.0,0.0,18.34
322,kapaa,us,5848280,22.08,-159.32,68.52,78.0,75.0,10.29
323,vestmannaeyjar,is,3412093,63.44,-20.27,32.0,86.0,0.0,26.4
324,port alfred,za,964432,-33.59,26.89,64.0,84.0,48.0,5.99
325,kharhial,in,1266924,20.28,82.77,70.19,68.0,8.0,4.16
326,port lincoln,au,2063036,-34.72,135.86,62.0,89.0,48.0,5.5
327,hermanus,za,3366880,-34.42,19.24,66.34,79.0,20.0,8.99
328,rovaniemi,fi,638936,66.5,25.72,33.8,64.0,0.0,18.34
329,wheatley,ca,6179873,42.09,-82.46,46.87,60.0,1.0,16.11
330,iqaluit,ca,5983720,63.75,-68.52,-4.69,70.0,90.0,29.97
331,east london,za,1006984,-33.02,27.91,60.8,93.0,40.0,3.36
332,leh,in,1264976,34.16,77.58,-7.12,54.0,32.0,1.59
333,isangel,vu,2136825,-19.55,169.27,80.54,100.0,48.0,15.46
334,castro,cl,3896218,-42.48,-73.76,59.0,67.0,75.0,8.05
335,nizhneyansk,ru,,,,,,,
336,ushuaia,ar,3833367,-54.81,-68.31,51.8,62.0,20.0,23.04
337,cherskiy,ru,2126199,68.75,161.3,28.97,81.0,92.0,7.4
338,yeniseysk,ru,1485997,58.45,92.17,34.1,83.0,64.0,13.11
339,angra,pt,,,,,,,
340,ponta delgada,pt,3372783,37.73,-25.67,55.67,71.0,40.0,19.46
341,viru,pe,3690875,-8.42,-78.75,69.8,88.0,90.0,10.29
342,ewa beach,us,5855051,21.32,-158.01,69.76,77.0,1.0,4.7
343,cidreira,br,3466165,-30.17,-50.22,83.6,76.0,20.0,2.71
344,kodiak,us,4407665,39.95,-94.76,43.29,75.0,90.0,10.29
345,mataura,pf,,,,,,,
346,carnarvon,au,2074865,-24.87,113.63,77.0,78.0,12.0,11.41
347,saint george,bm,3573061,32.38,-64.68,68.0,77.0,75.0,20.8
348,louisbourg,ca,,,,,,,
349,cape town,za,3369157,-33.93,18.42,67.53,49.0,0.0,11.41
350,port elizabeth,za,964420,-33.92,25.57,64.4,77.0,75.0,14.99
351,tiksi,ru,2015306,71.64,128.87,4.94,75.0,48.0,2.37
352,veraval,in,1253237,20.9,70.37,77.75,85.0,0.0,10.98
353,chapais,ca,5919850,49.78,-74.86,28.4,86.0,90.0,18.34
354,chupei,tw,,,,,,,
355,bobcaygeon,ca,8125787,44.54,-78.55,44.15,48.0,20.0,12.75
356,torbay,ca,6167817,47.66,-52.73,37.53,37.0,20.0,29.97
357,suntar,ru,2015913,62.16,117.65,27.08,76.0,0.0,7.07
358,gobabis,na,3357247,-22.45,18.97,72.62,55.0,80.0,9.64
359,arraial do cabo,br,3471451,-22.97,-42.02,83.55,45.0,20.0,5.82
360,taolanaro,mg,,,,,,,
361,pochutla,mx,3517970,15.74,-96.47,85.98,55.0,20.0,6.06
362,lasa,cn,,,,,,,
363,rikitea,pf,4030556,-23.12,-134.97,75.68,100.0,92.0,15.79
364,upernavik,gl,3418910,72.79,-56.15,14.03,100.0,44.0,19.04
365,sentyabrskiy,ru,,,,,,,
366,souillac,mu,933995,-20.52,57.52,77.83,78.0,20.0,7.4
367,stargard szczecinski,pl,3084840,53.34,15.05,52.9,34.0,0.0,17.22
368,rikitea,pf,4030556,-23.12,-134.97,75.68,100.0,92.0,15.79
369,taolanaro,mg,,,,,,,
370,ushuaia,ar,3833367,-54.81,-68.31,51.8,62.0,20.0,23.04
371,razdolinsk,ru,1493756,58.42,94.62,34.64,90.0,88.0,14.0
372,lavrentiya,ru,4031637,65.58,-170.99,24.29,96.0,64.0,6.4
373,sentyabrskiy,ru,,,,,,,
374,tsihombe,mg,,,,,,,
375,puerto ayora,ec,3652764,-0.74,-90.35,83.88,70.0,20.0,10.29
376,rikitea,pf,4030556,-23.12,-134.97,75.68,100.0,92.0,15.79
377,charters towers,au,2171722,-20.07,146.27,67.49,77.0,0.0,8.08
378,mataura,pf,,,,,,,
379,aklavik,ca,5882953,68.22,-135.01,5.0,77.0,90.0,9.17
380,port alfred,za,964432,-33.59,26.89,64.0,84.0,48.0,5.99
381,clyde river,ca,5924351,70.47,-68.59,3.2,84.0,90.0,32.21
382,kapaa,us,5848280,22.08,-159.32,68.52,78.0,75.0,10.29
383,san patricio,mx,3985168,19.22,-104.7,82.4,78.0,5.0,11.41
384,saint george,bm,3573061,32.38,-64.68,68.0,77.0,75.0,20.8
385,san cristobal,ec,3652567,-1.02,-79.44,67.31,100.0,76.0,3.15
386,cururupu,br,3401148,-1.82,-44.87,80.9,100.0,36.0,5.17
387,saint george,bm,3573061,32.38,-64.68,68.0,77.0,75.0,20.8
388,esperance,au,2071860,-33.86,121.89,59.0,87.0,90.0,8.05
389,bengkulu,id,,,,,,,
390,amderma,ru,,,,,,,
391,ingham,au,2162737,-18.65,146.16,78.56,96.0,88.0,16.13
392,rio gallegos,ar,3838859,-51.62,-69.22,60.8,51.0,40.0,21.92
393,cabcab,ph,1721660,13.63,124.05,76.22,100.0,36.0,7.18
394,new norfolk,au,2155415,-42.78,147.06,58.19,62.0,0.0,8.05
395,paamiut,gl,3421193,61.99,-49.67,34.73,87.0,92.0,55.27
396,busselton,au,2075265,-33.64,115.35,58.24,44.0,0.0,22.28
397,bubaque,gw,2374583,11.28,-15.83,87.56,77.0,0.0,13.11
398,uvat,ru,1487939,59.14,68.9,28.34,74.0,8.0,7.07
399,khatanga,ru,2022572,71.98,102.47,19.7,92.0,68.0,6.73
400,nome,us,4732862,30.04,-94.42,62.33,44.0,1.0,4.94
401,vaini,to,4032243,-21.2,-175.2,75.2,83.0,20.0,8.05
402,tasiilaq,gl,3424607,65.61,-37.64,23.0,85.0,90.0,20.8
403,lagoa,pt,2267254,37.14,-8.45,63.73,77.0,20.0,9.17
404,illoqqortoormiut,gl,,,,,,,
405,upernavik,gl,3418910,72.79,-56.15,14.03,100.0,44.0,19.04
406,fonte boa,br,3664207,-2.51,-66.09,81.44,97.0,88.0,5.73
407,saskylakh,ru,2017155,71.97,114.09,23.39,85.0,80.0,4.05
408,ancud,cl,3899695,-41.87,-73.83,59.0,67.0,75.0,8.05
409,ushuaia,ar,3833367,-54.81,-68.31,51.8,62.0,20.0,23.04
410,lebu,cl,3883457,-37.62,-73.65,58.13,87.0,0.0,22.62
411,eyl,so,60019,7.98,49.82,77.3,100.0,0.0,5.61
412,mangan,in,1263776,27.5,88.54,23.84,61.0,0.0,2.59
413,atuona,pf,4020109,-9.8,-139.03,81.98,100.0,0.0,12.21
414,albany,au,2077963,-35.02,117.88,59.0,93.0,75.0,9.17
415,orumiyeh,ir,121801,37.55,45.08,46.4,68.0,40.0,9.17
416,bredasdorp,za,1015776,-34.53,20.04,63.0,79.0,36.0,8.99
417,tiksi,ru,2015306,71.64,128.87,4.94,75.0,48.0,2.37
418,berlevag,no,780687,70.86,29.09,29.82,100.0,75.0,9.17
419,barentsburg,sj,,,,,,,
420,bati,et,342641,11.19,40.02,75.59,64.0,44.0,3.6
421,rikitea,pf,4030556,-23.12,-134.97,75.68,100.0,92.0,15.79
422,iqaluit,ca,5983720,63.75,-68.52,-4.69,70.0,90.0,29.97
423,ribeira grande,pt,3372707,38.52,-28.7,60.8,59.0,20.0,13.87
424,ushuaia,ar,3833367,-54.81,-68.31,51.8,62.0,20.0,23.04
425,bethel,us,5880568,60.79,-161.76,27.52,100.0,1.0,8.05
426,nikolskoye,ru,546105,59.7,30.79,35.51,55.0,0.0,4.47
427,bondo,cd,218253,3.81,23.69,85.13,58.0,36.0,3.15
428,vaini,to,4032243,-21.2,-175.2,75.2,83.0,20.0,8.05
429,jubayl,lb,,,,,,,
430,bull savanna,jm,3491161,17.89,-77.59,82.7,62.0,76.0,3.15
431,ambon,id,1651531,-3.7,128.18,78.98,100.0,40.0,4.7
432,punta arenas,cl,3874787,-53.16,-70.91,54.55,50.0,40.0,29.97
433,attawapiskat,ca,,,,,,,
434,saleaula,ws,,,,,,,
435,bethel,us,5880568,60.79,-161.76,27.52,100.0,1.0,8.05
436,burnie,au,2173125,-41.05,145.91,50.52,90.0,88.0,1.99
437,manati,cu,,,,,,,
438,busselton,au,2075265,-33.64,115.35,58.24,44.0,0.0,22.28
439,rikitea,pf,4030556,-23.12,-134.97,75.68,100.0,92.0,15.79
440,atar,mr,2381334,20.52,-13.05,69.92,83.0,92.0,10.54
441,butte,us,5642934,46.01,-112.54,38.55,59.0,1.0,2.93
442,iqaluit,ca,5983720,63.75,-68.52,-4.69,70.0,90.0,29.97
443,barentsburg,sj,,,,,,,
444,punta arenas,cl,3874787,-53.16,-70.91,54.55,50.0,40.0,29.97
445,dikson,ru,1507390,73.51,80.55,23.12,98.0,32.0,26.19
446,atuona,pf,4020109,-9.8,-139.03,81.98,100.0,0.0,12.21
447,hilo,us,5855927,19.71,-155.08,67.84,72.0,40.0,5.82
448,barrow,us,4252975,39.51,-90.4,55.06,64.0,90.0,16.11
449,taolanaro,mg,,,,,,,
450,ushuaia,ar,3833367,-54.81,-68.31,51.8,62.0,20.0,23.04
451,florianopolis,br,3463237,-27.6,-48.55,84.29,54.0,0.0,12.75
452,salalah,om,286621,17.01,54.1,80.6,74.0,20.0,6.93
453,taolanaro,mg,,,,,,,
454,kaoma,zm,913323,-14.8,24.8,75.14,37.0,0.0,6.4
455,padang,id,1633419,-0.92,100.36,84.05,100.0,24.0,4.61
456,huanren,cn,2036713,41.26,125.37,16.82,72.0,0.0,2.15
457,castro,cl,3896218,-42.48,-73.76,59.0,67.0,75.0,8.05
458,ca mau,vn,1586443,9.18,105.15,75.59,100.0,0.0,7.74
459,albany,au,2077963,-35.02,117.88,59.0,93.0,75.0,9.17
460,qaanaaq,gl,3831208,77.48,-69.36,-0.46,74.0,0.0,8.41
461,tuktoyaktuk,ca,6170031,69.44,-133.03,-0.41,77.0,40.0,10.29
462,qaanaaq,gl,3831208,77.48,-69.36,-0.46,74.0,0.0,8.41
463,vaini,to,4032243,-21.2,-175.2,75.2,83.0,20.0,8.05
464,torbay,ca,6167817,47.66,-52.73,37.53,37.0,20.0,29.97
465,puerto ayora,ec,3652764,-0.74,-90.35,83.88,70.0,20.0,10.29
466,hilo,us,5855927,19.71,-155.08,67.84,72.0,40.0,5.82
467,barentsburg,sj,,,,,,,
468,komsomolskiy,ru,1486910,67.55,63.78,23.48,85.0,88.0,12.77
469,barrow,us,4252975,39.51,-90.4,55.06,64.0,90.0,16.11
470,lebu,cl,3883457,-37.62,-73.65,58.13,87.0,0.0,22.62
471,ushuaia,ar,3833367,-54.81,-68.31,51.8,62.0,20.0,23.04
472,cabo san lucas,mx,3985710,22.89,-109.91,78.75,16.0,5.0,8.52
473,nizhneyansk,ru,,,,,,,
474,hobart,au,2163355,-42.88,147.33,58.19,62.0,0.0,8.05
475,coihaique,cl,3894426,-45.58,-72.07,58.93,55.0,40.0,6.93
476,tooele,us,5783695,40.53,-112.3,51.13,71.0,90.0,17.22
477,imphal,in,1269771,24.8,93.94,59.21,97.0,92.0,1.48
478,tsabong,bw,932987,-26.02,22.4,72.8,60.0,48.0,6.62
479,yangambi,cd,203717,0.77,24.47,86.12,55.0,0.0,4.38
480,rikitea,pf,4030556,-23.12,-134.97,75.68,100.0,92.0,15.79
481,carnarvon,au,2074865,-24.87,113.63,77.0,78.0,12.0,11.41
482,cape town,za,3369157,-33.93,18.42,67.53,49.0,0.0,11.41
483,busselton,au,2075265,-33.64,115.35,58.24,44.0,0.0,22.28
484,punta arenas,cl,3874787,-53.16,-70.91,54.55,50.0,40.0,29.97
485,saleaula,ws,,,,,,,
486,mahajanga,mg,1062663,-15.72,46.32,82.4,83.0,20.0,4.7
487,jamestown,sh,3370903,-15.94,-5.72,77.21,99.0,92.0,16.13
488,belushya guba,ru,,,,,,,
489,mataura,pf,,,,,,,
490,cartagena del chaira,co,3792382,1.33,-74.84,80.9,82.0,80.0,2.93
491,chuy,uy,3443061,-33.69,-53.46,80.9,82.0,32.0,7.4
492,punta arenas,cl,3874787,-53.16,-70.91,54.55,50.0,40.0,29.97
493,ferrol,es,3123493,43.48,-8.23,53.49,66.0,40.0,10.29
494,lagoa,pt,2267254,37.14,-8.45,63.73,77.0,20.0,9.17
495,fortuna,us,5563839,40.6,-124.16,53.65,100.0,90.0,11.41
496,buala,sb,2109528,-8.15,159.59,77.75,100.0,92.0,6.06
497,punta arenas,cl,3874787,-53.16,-70.91,54.55,50.0,40.0,29.97
498,katherine,au,2068655,-14.47,132.26,75.2,73.0,48.0,4.7
499,sur,om,286245,22.57,59.53,79.82,82.0,68.0,5.06
500,kapaa,us,5848280,22.08,-159.32,68.52,78.0,75.0,10.29
501,moerai,pf,4034188,-22.43,-151.33,80.63,93.0,36.0,14.67
502,bulgan,mn,2032201,48.81,103.53,26.99,62.0,0.0,2.59
503,mumford,gh,2297810,5.26,-0.76,85.67,68.0,32.0,10.65
504,ushuaia,ar,3833367,-54.81,-68.31,51.8,62.0,20.0,23.04
505,faya,td,,,,,,,
506,okahandja,na,3354898,-21.98,16.91,62.27,83.0,12.0,2.37
507,berlevag,no,780687,70.86,29.09,29.82,100.0,75.0,9.17
508,busselton,au,2075265,-33.64,115.35,58.24,44.0,0.0,22.28
509,sibolga,id,1213855,1.74,98.78,69.29,100.0,48.0,1.7
510,punta arenas,cl,3874787,-53.16,-70.91,54.55,50.0,40.0,29.97
511,hobart,au,2163355,-42.88,147.33,58.19,62.0,0.0,8.05
512,ushuaia,ar,3833367,-54.81,-68.31,51.8,62.0,20.0,23.04
513,hasaki,jp,2112802,35.73,140.83,32.99,64.0,20.0,6.93
514,rikitea,pf,4030556,-23.12,-134.97,75.68,100.0,92.0,15.79
515,smithers,ca,6149996,54.78,-127.17,28.4,86.0,5.0,2.24
516,constitucion,mx,4011743,23.99,-104.67,71.01,17.0,24.0,5.01
517,hilo,us,5855927,19.71,-155.08,67.84,72.0,40.0,5.82
518,hermanus,za,3366880,-34.42,19.24,66.34,79.0,20.0,8.99
519,mar del plata,ar,3863379,-46.43,-67.52,72.62,31.0,0.0,18.81
520,nikolskoye,ru,546105,59.7,30.79,35.51,55.0,0.0,4.47
521,yumen,cn,1528998,40.29,97.04,34.01,59.0,8.0,3.71
522,mataura,pf,,,,,,,
523,bluff,nz,2206939,-46.6,168.33,44.01,91.0,56.0,11.21
524,dikson,ru,1507390,73.51,80.55,23.12,98.0,32.0,26.19
525,bluff,nz,2206939,-46.6,168.33,44.01,91.0,56.0,11.21
526,oulainen,fi,643497,64.27,24.8,37.99,68.0,0.0,18.01
527,pangnirtung,ca,6096551,66.15,-65.72,-0.41,84.0,90.0,9.17
528,vila velha,br,6320062,-3.71,-38.6,82.96,70.0,75.0,12.75
529,saint-philippe,re,935215,-21.36,55.77,75.92,61.0,0.0,4.7
530,bethel,us,5880568,60.79,-161.76,27.52,100.0,1.0,8.05
531,urucui,br,3385658,-7.23,-44.56,83.78,87.0,32.0,5.39
532,dwarka,in,1273294,28.58,77.04,85.32,34.0,0.0,4.7
533,puerto ayora,ec,3652764,-0.74,-90.35,83.88,70.0,20.0,10.29
534,mataura,pf,,,,,,,
535,atherton,au,2177541,-17.27,145.48,75.31,88.0,90.0,12.75
536,busselton,au,2075265,-33.64,115.35,58.24,44.0,0.0,22.28
537,punta arenas,cl,3874787,-53.16,-70.91,54.55,50.0,40.0,29.97
538,new norfolk,au,2155415,-42.78,147.06,58.19,62.0,0.0,8.05
539,hasaki,jp,2112802,35.73,140.83,32.99,64.0,20.0,6.93
540,ola,ru,2122574,59.58,151.3,29.42,82.0,68.0,12.66
541,grand-lahou,ci,2288105,5.24,-5.0,86.75,66.0,48.0,6.73
542,kudahuvadhoo,mv,1337607,2.67,72.89,83.42,100.0,0.0,4.94
543,vaini,to,4032243,-21.2,-175.2,75.2,83.0,20.0,8.05
544,chokurdakh,ru,2126123,70.62,147.9,3.05,65.0,64.0,2.93
545,ilulissat,gl,3423146,69.22,-51.1,37.4,69.0,75.0,24.16
546,palabuhanratu,id,,,,,,,
547,bluff,nz,2206939,-46.6,168.33,44.01,91.0,56.0,11.21
548,bredasdorp,za,1015776,-34.53,20.04,63.0,79.0,36.0,8.99
549,attawapiskat,ca,,,,,,,
550,gizo,sb,2108857,-8.1,156.84,78.38,100.0,80.0,4.16
551,clyde river,ca,5924351,70.47,-68.59,3.2,84.0,90.0,32.21
552,ushuaia,ar,3833367,-54.81,-68.31,51.8,62.0,20.0,23.04
553,komsomolets,kz,1522348,53.75,62.07,41.84,69.0,76.0,7.07
554,grand river south east,mu,,,,,,,
555,punta arenas,cl,3874787,-53.16,-70.91,54.55,50.0,40.0,29.97
556,vila velha,br,6320062,-3.71,-38.6,82.96,70.0,75.0,12.75
557,port shepstone,za,964406,-30.74,30.45,64.97,100.0,92.0,2.48
558,isangel,vu,2136825,-19.55,169.27,80.54,100.0,48.0,15.46
559,bolshaya murta,ru,,,,,,,
560,vaini,to,4032243,-21.2,-175.2,75.2,83.0,20.0,8.05
561,tura,ru,2014833,64.27,100.22,23.75,74.0,88.0,2.48
562,port alfred,za,964432,-33.59,26.89,64.0,84.0,48.0,5.99
563,bobonong,bw,,,,,,,
564,methoni,gr,257122,36.82,21.7,59.79,71.0,20.0,11.77
565,caravelas,br,3466980,-17.73,-39.27,80.9,100.0,0.0,8.41
566,abaza,ru,1512205,52.65,90.1,46.79,81.0,92.0,8.08
567,clyde river,ca,5924351,70.47,-68.59,3.2,84.0,90.0,32.21
568,tiksi,ru,2015306,71.64,128.87,4.94,75.0,48.0,2.37
569,punta arenas,cl,3874787,-53.16,-70.91,54.55,50.0,40.0,29.97
570,nelson bay,au,2155562,-32.72,152.14,60.46,93.0,12.0,5.61
571,belushya guba,ru,,,,,,,
572,palmerston,au,6301965,-12.49,130.99,78.46,88.0,76.0,2.24
573,bambous virieux,mu,1106677,-20.34,57.76,77.92,78.0,20.0,7.4
574,rikitea,pf,4030556,-23.12,-134.97,75.68,100.0,92.0,15.79
575,coihaique,cl,3894426,-45.58,-72.07,58.93,55.0,40.0,6.93
576,pundaguitan,ph,1698289,6.37,126.17,79.19,100.0,80.0,6.96
577,hermanus,za,3366880,-34.42,19.24,66.34,79.0,20.0,8.99
578,ushuaia,ar,3833367,-54.81,-68.31,51.8,62.0,20.0,23.04
579,sao jose da coroa grande,br,3388456,-8.9,-35.15,81.71,90.0,88.0,8.08
580,jaisalmer,in,1269507,26.91,70.91,75.05,35.0,0.0,2.59
581,talnakh,ru,1490256,69.49,88.39,17.0,72.0,48.0,3.04
582,bluff,nz,2206939,-46.6,168.33,44.01,91.0,56.0,11.21
583,kroderen,no,,,,,,,
584,bluff,nz,2206939,-46.6,168.33,44.01,91.0,56.0,11.21
585,meulaboh,id,1214488,4.14,96.13,80.45,100.0,48.0,4.72
586,samalaeulu,ws,,,,,,,
587,grand gaube,mu,934479,-20.01,57.66,78.3,78.0,20.0,10.09
588,louisbourg,ca,,,,,,,
589,san patricio,mx,3985168,19.22,-104.7,82.4,78.0,5.0,11.41
590,anloga,gh,2304548,5.79,0.9,87.8,79.0,20.0,11.41
591,harper,lr,2276492,4.38,-7.71,86.12,96.0,12.0,8.19
592,kununurra,au,2068110,-15.77,128.74,77.0,36.0,20.0,8.05
593,georgetown,sh,2411397,-7.93,-14.42,81.08,100.0,88.0,15.01
594,lichinga,mz,1043893,-13.3,35.25,70.55,79.0,20.0,5.95
595,grand river south east,mu,,,,,,,
596,rikitea,pf,4030556,-23.12,-134.97,75.68,100.0,92.0,15.79
597,roberto payan,co,,,,,,,
598,punta arenas,cl,3874787,-53.16,-70.91,54.55,50.0,40.0,29.97
599,nouadhibou,mr,2377457,20.93,-17.03,69.8,64.0,20.0,6.93
600,portland,au,2152668,-33.35,149.98,51.01,98.0,0.0,1.01
601,fortuna,us,5563839,40.6,-124.16,53.65,100.0,90.0,11.41
602,vaini,to,4032243,-21.2,-175.2,75.2,83.0,20.0,8.05
603,edd,er,338345,13.93,41.69,77.84,69.0,0.0,5.06
604,snezhnogorsk,ru,795243,69.19,33.23,39.2,60.0,75.0,4.47
605,uthal,pk,1162862,25.81,66.62,70.37,90.0,0.0,5.17
606,beyneu,kz,610298,45.32,55.19,48.14,97.0,92.0,13.56
607,albany,au,2077963,-35.02,117.88,59.0,93.0,75.0,9.17
608,narsaq,gl,3421719,60.91,-46.05,42.8,60.0,75.0,34.45
609,sioux lookout,ca,6148373,50.1,-91.92,32.0,60.0,40.0,13.87
610,atuona,pf,4020109,-9.8,-139.03,81.98,100.0,0.0,12.21
611,lompoc,us,5367788,34.64,-120.46,60.87,72.0,40.0,5.17
612,airai,pw,,,,,,,
613,cherskiy,ru,2126199,68.75,161.3,28.97,81.0,92.0,7.4
614,arraial do cabo,br,3471451,-22.97,-42.02,83.55,45.0,20.0,5.82
615,cape town,za,3369157,-33.93,18.42,67.53,49.0,0.0,11.41
616,khandyga,ru,2022773,62.65,135.58,4.22,60.0,0.0,2.37
617,mys shmidta,ru,,,,,,,
618,bredasdorp,za,1015776,-34.53,20.04,63.0,79.0,36.0,8.99
619,lagoa,pt,2267254,37.14,-8.45,63.73,77.0,20.0,9.17
620,bluff,nz,2206939,-46.6,168.33,44.01,91.0,56.0,11.21
621,hilo,us,5855927,19.71,-155.08,67.84,72.0,40.0,5.82
622,kapoeta,sd,,,,,,,
623,angoche,mz,1052944,-16.23,39.91,79.19,100.0,68.0,15.12
624,maraa,br,3663475,-1.83,-65.37,84.77,83.0,88.0,4.05
625,villazon,bo,,,,,,,
626,egvekinot,ru,4031742,66.32,-179.17,16.1,75.0,56.0,2.37
627,meulaboh,id,1214488,4.14,96.13,80.45,100.0,48.0,4.72
628,qaanaaq,gl,3831208,77.48,-69.36,-0.46,74.0,0.0,8.41
629,candido mota,br,3467542,-22.75,-50.39,86.75,55.0,12.0,4.72
630,rikitea,pf,4030556,-23.12,-134.97,75.68,100.0,92.0,15.79
631,taolanaro,mg,,,,,,,
632,bathsheba,bb,3374083,13.22,-59.52,86.0,55.0,20.0,26.4
633,grand river south east,mu,,,,,,,
634,vaini,to,4032243,-21.2,-175.2,75.2,83.0,20.0,8.05
635,ushuaia,ar,3833367,-54.81,-68.31,51.8,62.0,20.0,23.04
636,tuktoyaktuk,ca,6170031,69.44,-133.03,-0.41,77.0,40.0,10.29
637,taoudenni,ml,2450173,22.68,-3.98,89.99,17.0,8.0,9.08
638,juegang,cn,1804979,32.31,121.18,56.79,64.0,92.0,5.17
639,chokurdakh,ru,2126123,70.62,147.9,3.05,65.0,64.0,2.93
640,alindao,cf,240999,5.04,21.21,82.07,62.0,0.0,5.61
641,nouadhibou,mr,2377457,20.93,-17.03,69.8,64.0,20.0,6.93
642,durango,us,5420241,37.28,-107.88,51.98,42.0,1.0,3.36
643,arraial do cabo,br,3471451,-22.97,-42.02,83.55,45.0,20.0,5.82
644,mount pleasant,us,4588165,32.79,-79.86,46.36,81.0,1.0,11.41
645,xai-xai,mz,1024552,-25.04,33.64,73.7,100.0,92.0,19.82
646,isangel,vu,2136825,-19.55,169.27,80.54,100.0,48.0,15.46
647,port elizabeth,za,964420,-33.92,25.57,64.4,77.0,75.0,14.99
648,sembakung,id,1627877,3.82,117.25,75.68,96.0,36.0,1.36
649,rocha,uy,3440777,-34.48,-54.34,82.16,70.0,44.0,7.18
650,new norfolk,au,2155415,-42.78,147.06,58.19,62.0,0.0,8.05
651,vaini,to,4032243,-21.2,-175.2,75.2,83.0,20.0,8.05
652,yuci,cn,1785974,37.68,112.73,48.2,31.0,0.0,8.95
653,butaritari,ki,2110227,3.07,172.79,77.21,100.0,76.0,6.06
654,hithadhoo,mv,1282256,-0.6,73.08,84.59,100.0,32.0,7.4
655,necochea,ar,3430443,-38.55,-58.74,73.25,61.0,0.0,20.71
656,lagoa,pt,2267254,37.14,-8.45,63.73,77.0,20.0,9.17
657,kunzelsau,de,2882439,49.28,9.69,62.2,27.0,0.0,16.11
658,rikitea,pf,4030556,-23.12,-134.97,75.68,100.0,92.0,15.79
659,mouila,ga,2398073,-1.86,11.06,76.4,97.0,80.0,0.36
660,hermanus,za,3366880,-34.42,19.24,66.34,79.0,20.0,8.99
661,saint-pierre,re,935214,-21.34,55.48,75.88,61.0,0.0,4.7
662,yaan,cn,,,,,,,
663,hermanus,za,3366880,-34.42,19.24,66.34,79.0,20.0,8.99
664,oktyabrskoye,ru,1511846,56.73,85.44,34.93,64.0,0.0,4.47
665,saldanha,za,3361934,-33.01,17.94,65.6,51.0,0.0,11.54
666,hermanus,za,3366880,-34.42,19.24,66.34,79.0,20.0,8.99
667,belushya guba,ru,,,,,,,
668,kamenskoye,ru,,,,,,,
669,cuxhaven,de,2939658,53.87,8.7,53.35,66.0,75.0,11.41
670,mataura,pf,,,,,,,
671,airai,pw,,,,,,,
672,kyra,ru,2021041,49.58,111.97,17.72,67.0,0.0,2.93
673,bassila,bj,2395261,9.0,1.66,90.89,41.0,20.0,4.16
674,laguna,br,,,,,,,
675,bredasdorp,za,1015776,-34.53,20.04,63.0,79.0,36.0,8.99
676,mys shmidta,ru,,,,,,,
677,kapaa,us,5848280,22.08,-159.32,68.52,78.0,75.0,10.29
678,vaini,to,4032243,-21.2,-175.2,75.2,83.0,20.0,8.05
679,qaanaaq,gl,3831208,77.48,-69.36,-0.46,74.0,0.0,8.41
680,avarua,ck,4035715,-21.21,-159.78,78.8,83.0,8.0,18.34
681,hobyo,so,57000,5.35,48.53,79.37,90.0,32.0,8.52
682,thompson,ca,6165406,55.74,-97.86,12.2,66.0,75.0,11.41
683,atuona,pf,4020109,-9.8,-139.03,81.98,100.0,0.0,12.21
684,albany,au,2077963,-35.02,117.88,59.0,93.0,75.0,9.17
685,margate,za,978895,-30.86,30.37,64.97,100.0,92.0,2.48
686,flin flon,ca,5954718,54.77,-101.88,17.6,57.0,90.0,13.87
687,ponta do sol,cv,3374346,17.2,-25.09,77.0,53.0,40.0,11.41
688,kangaatsiaq,gl,3422683,68.31,-53.46,26.72,100.0,88.0,18.14
689,meulaboh,id,1214488,4.14,96.13,80.45,100.0,48.0,4.72
690,tura,ru,2014833,64.27,100.22,23.75,74.0,88.0,2.48
691,belmonte,br,3448454,-26.84,-53.58,85.4,68.0,56.0,6.62
692,qaanaaq,gl,3831208,77.48,-69.36,-0.46,74.0,0.0,8.41
693,antofagasta,cl,3899539,-23.65,-70.4,69.8,52.0,0.0,13.87
694,payo,ph,,,,,,,
695,port elizabeth,za,964420,-33.92,25.57,64.4,77.0,75.0,14.99
696,vila do maio,cv,3374120,15.13,-23.22,77.0,57.0,40.0,18.34
697,stryn,no,3135601,61.9,6.72,41.2,42.0,20.0,9.17
698,bengkulu,id,,,,,,,
699,sisophon,kh,1822207,13.59,102.97,73.79,83.0,20.0,2.37
700,ushuaia,ar,3833367,-54.81,-68.31,51.8,62.0,20.0,23.04
701,arraial do cabo,br,3471451,-22.97,-42.02,83.55,45.0,20.0,5.82
702,marsa matruh,eg,352733,31.35,27.25,60.8,67.0,0.0,5.82
703,bluff,nz,2206939,-46.6,168.33,44.01,91.0,56.0,11.21
704,barrow,us,4252975,39.51,-90.4,55.06,64.0,90.0,16.11
705,kavieng,pg,2094342,-2.57,150.8,84.14,99.0,48.0,10.65
706,portland,au,2152668,-33.35,149.98,51.01,98.0,0.0,1.01
707,qaanaaq,gl,3831208,77.48,-69.36,-0.46,74.0,0.0,8.41
708,kiunga,pg,2093846,-6.12,141.3,72.44,97.0,80.0,2.37
709,ushuaia,ar,3833367,-54.81,-68.31,51.8,62.0,20.0,23.04
710,ushuaia,ar,3833367,-54.81,-68.31,51.8,62.0,20.0,23.04
711,gedo,et,337083,9.01,37.45,64.07,75.0,56.0,2.71
712,samusu,ws,,,,,,,
713,norman,us,4543762,35.22,-97.44,64.36,36.0,1.0,14.99
714,kaspiyskiy,ru,551846,45.39,47.37,43.91,100.0,92.0,15.57
715,ponta do sol,cv,3374346,17.2,-25.09,77.0,53.0,40.0,11.41
716,hermanus,za,3366880,-34.42,19.24,66.34,79.0,20.0,8.99
717,tarudant,ma,,,,,,,
718,saskylakh,ru,2017155,71.97,114.09,23.39,85.0,80.0,4.05
719,ribeira grande,pt,3372707,38.52,-28.7,60.8,59.0,20.0,13.87
720,port alfred,za,964432,-33.59,26.89,64.0,84.0,48.0,5.99
721,punta arenas,cl,3874787,-53.16,-70.91,54.55,50.0,40.0,29.97
722,koratla,in,1266124,18.82,78.72,80.09,47.0,56.0,12.21
723,husavik,is,2629833,66.04,-17.34,28.4,63.0,75.0,14.99
724,hakui,jp,1863341,36.89,136.78,37.8,86.0,75.0,6.93
725,punta arenas,cl,3874787,-53.16,-70.91,54.55,50.0,40.0,29.97
726,puerto ayora,ec,3652764,-0.74,-90.35,83.88,70.0,20.0,10.29
727,poya,nc,2138522,-21.35,165.16,76.94,100.0,8.0,7.74
728,rikitea,pf,4030556,-23.12,-134.97,75.68,100.0,92.0,15.79
729,les cayes,ht,3728097,18.19,-73.75,78.02,100.0,64.0,9.53
730,bambous virieux,mu,1106677,-20.34,57.76,77.92,78.0,20.0,7.4
731,ilulissat,gl,3423146,69.22,-51.1,37.4,69.0,75.0,24.16
732,atambua,id,1651103,-9.11,124.89,75.23,100.0,12.0,3.38
733,holland,us,4996248,42.79,-86.11,50.95,46.0,1.0,18.34
734,severo-kurilsk,ru,2121385,50.68,156.12,30.77,99.0,88.0,18.7
735,kodiak,us,4407665,39.95,-94.76,43.29,75.0,90.0,10.29
736,east london,za,1006984,-33.02,27.91,60.8,93.0,40.0,3.36
737,castro,cl,3896218,-42.48,-73.76,59.0,67.0,75.0,8.05
738,hermanus,za,3366880,-34.42,19.24,66.34,79.0,20.0,8.99
739,olafsvik,is,,,,,,,
740,ushuaia,ar,3833367,-54.81,-68.31,51.8,62.0,20.0,23.04
741,cape town,za,3369157,-33.93,18.42,67.53,49.0,0.0,11.41
742,nizhneyansk,ru,,,,,,,
743,georgetown,sh,2411397,-7.93,-14.42,81.08,100.0,88.0,15.01
744,lethem,gy,3379316,3.38,-59.8,98.9,30.0,0.0,11.54
745,hobart,au,2163355,-42.88,147.33,58.19,62.0,0.0,8.05
746,mahebourg,mu,934322,-20.41,57.7,77.83,78.0,20.0,7.4
747,punta arenas,cl,3874787,-53.16,-70.91,54.55,50.0,40.0,29.97
748,atuona,pf,4020109,-9.8,-139.03,81.98,100.0,0.0,12.21
749,kaeo,nz,2189343,-35.1,173.78,50.0,93.0,0.0,6.17
750,cidreira,br,3466165,-30.17,-50.22,83.6,76.0,20.0,2.71
751,urumqi,cn,,,,,,,
752,east london,za,1006984,-33.02,27.91,60.8,93.0,40.0,3.36
753,shaunavon,ca,6145425,49.65,-108.41,40.22,60.0,0.0,14.12
754,severo-kurilsk,ru,2121385,50.68,156.12,30.77,99.0,88.0,18.7
755,norman wells,ca,6089245,65.28,-126.83,10.4,66.0,75.0,16.11
756,sur,om,286245,22.57,59.53,79.82,82.0,68.0,5.06
757,two rivers,us,5276609,44.15,-87.57,36.93,93.0,90.0,5.82
758,busselton,au,2075265,-33.64,115.35,58.24,44.0,0.0,22.28
759,qaanaaq,gl,3831208,77.48,-69.36,-0.46,74.0,0.0,8.41
760,san patricio,mx,3985168,19.22,-104.7,82.4,78.0,5.0,11.41
761,busselton,au,2075265,-33.64,115.35,58.24,44.0,0.0,22.28
762,punta arenas,cl,3874787,-53.16,-70.91,54.55,50.0,40.0,29.97
763,sao filipe,cv,3374210,14.9,-24.5,71.9,94.0,0.0,13.44
764,khatanga,ru,2022572,71.98,102.47,19.7,92.0,68.0,6.73
765,sitio novo do tocantins,br,,,,,,,
766,sentyabrskiy,ru,,,,,,,
767,georgetown,sh,2411397,-7.93,-14.42,81.08,100.0,88.0,15.01
768,dikson,ru,1507390,73.51,80.55,23.12,98.0,32.0,26.19
769,taolanaro,mg,,,,,,,
770,hermanus,za,3366880,-34.42,19.24,66.34,79.0,20.0,8.99
771,la ronge,ca,6050066,55.1,-105.3,19.4,57.0,75.0,20.8
772,arraial do cabo,br,3471451,-22.97,-42.02,83.55,45.0,20.0,5.82
773,nizhneyansk,ru,,,,,,,
774,eenhana,na,3357804,-17.48,16.34,91.4,27.0,20.0,2.24
775,cherskiy,ru,2126199,68.75,161.3,28.97,81.0,92.0,7.4
776,los llanos de aridane,es,2514651,28.66,-17.92,60.69,77.0,75.0,14.99
777,nikolskoye,ru,546105,59.7,30.79,35.51,55.0,0.0,4.47
778,ushuaia,ar,3833367,-54.81,-68.31,51.8,62.0,20.0,23.04
779,taolanaro,mg,,,,,,,
780,grand gaube,mu,934479,-20.01,57.66,78.3,78.0,20.0,10.09
781,cairns,au,2172797,-16.92,145.77,75.2,88.0,90.0,12.75
782,bilma,ne,2446796,18.69,12.92,81.62,20.0,0.0,3.6
783,souillac,mu,933995,-20.52,57.52,77.83,78.0,20.0,7.4
784,nabire,id,1634614,-3.36,135.5,68.57,93.0,88.0,2.04
785,faya,td,,,,,,,
786,palabuhanratu,id,,,,,,,
787,yellowknife,ca,6185377,62.45,-114.38,5.72,71.0,20.0,14.99
788,nemuro,jp,2128975,43.32,145.57,30.05,100.0,8.0,10.54
789,kapaa,us,5848280,22.08,-159.32,68.52,78.0,75.0,10.29
790,butaritari,ki,2110227,3.07,172.79,77.21,100.0,76.0,6.06
791,georgetown,sh,2411397,-7.93,-14.42,81.08,100.0,88.0,15.01
792,saint-philippe,re,935215,-21.36,55.77,75.92,61.0,0.0,4.7
793,barrow,us,4252975,39.51,-90.4,55.06,64.0,90.0,16.11
794,saint anthony,ca,,,,,,,
795,bluff,nz,2206939,-46.6,168.33,44.01,91.0,56.0,11.21
796,makakilo city,us,5850554,21.35,-158.09,69.91,77.0,1.0,4.7
797,new norfolk,au,2155415,-42.78,147.06,58.19,62.0,0.0,8.05
798,hilo,us,5855927,19.71,-155.08,67.84,72.0,40.0,5.82
799,dibaya,cd,,,,,,,
800,port lincoln,au,2063036,-34.72,135.86,62.0,89.0,48.0,5.5
801,araouane,ml,2460954,18.9,-3.53,97.1,17.0,0.0,8.63
802,karkaralinsk,kz,,,,,,,
803,vaini,to,4032243,-21.2,-175.2,75.2,83.0,20.0,8.05
804,hasaki,jp,2112802,35.73,140.83,32.99,64.0,20.0,6.93
805,bonthe,sl,2409914,7.53,-12.5,82.16,87.0,68.0,4.61
806,busselton,au,2075265,-33.64,115.35,58.24,44.0,0.0,22.28
807,rock sound,bs,3571592,24.9,-76.2,77.84,98.0,0.0,6.96
808,hanzhong,cn,1808857,33.08,107.03,39.59,90.0,48.0,4.16
809,kapaa,us,5848280,22.08,-159.32,68.52,78.0,75.0,10.29
810,yellowknife,ca,6185377,62.45,-114.38,5.72,71.0,20.0,14.99
811,coatepec harinas,mx,3530527,18.89,-99.72,74.26,26.0,5.0,5.82
812,rikitea,pf,4030556,-23.12,-134.97,75.68,100.0,92.0,15.79
813,necochea,ar,3430443,-38.55,-58.74,73.25,61.0,0.0,20.71
814,yellowknife,ca,6185377,62.45,-114.38,5.72,71.0,20.0,14.99
815,vallenar,cl,3868633,-28.58,-70.76,71.72,69.0,0.0,2.71
816,obluche,ru,,,,,,,
817,thompson,ca,6165406,55.74,-97.86,12.2,66.0,75.0,11.41
818,ancud,cl,3899695,-41.87,-73.83,59.0,67.0,75.0,8.05
819,amarante do maranhao,br,3407755,-5.57,-46.74,83.06,85.0,12.0,5.06
820,sindou,bf,2355548,10.66,-5.16,90.35,52.0,36.0,2.93
821,abalak,ne,2448245,15.46,6.28,95.03,15.0,24.0,8.63
822,gimli,ca,5961417,50.63,-96.99,31.53,46.0,80.0,11.01
823,orissaare,ee,589796,58.56,23.08,41.27,56.0,12.0,13.87
824,kapaa,us,5848280,22.08,-159.32,68.52,78.0,75.0,10.29
825,jamestown,sh,3370903,-15.94,-5.72,77.21,99.0,92.0,16.13
826,norman wells,ca,6089245,65.28,-126.83,10.4,66.0,75.0,16.11
827,lolua,tv,,,,,,,
828,cape town,za,3369157,-33.93,18.42,67.53,49.0,0.0,11.41
829,novoagansk,ru,1497210,61.94,76.66,28.34,83.0,88.0,7.96
830,mataura,pf,,,,,,,
831,ushuaia,ar,3833367,-54.81,-68.31,51.8,62.0,20.0,23.04
832,cape town,za,3369157,-33.93,18.42,67.53,49.0,0.0,11.41
833,anchorage,us,5879400,61.22,-149.89,32.61,80.0,40.0,1.92
834,falealupo,ws,,,,,,,
835,codrington,ag,,,,,,,
836,jamestown,sh,3370903,-15.94,-5.72,77.21,99.0,92.0,16.13
837,belushya guba,ru,,,,,,,
838,beyneu,kz,610298,45.32,55.19,48.14,97.0,92.0,13.56
839,busselton,au,2075265,-33.64,115.35,58.24,44.0,0.0,22.28
840,hermanus,za,3366880,-34.42,19.24,66.34,79.0,20.0,8.99
841,hambantota,lk,1244926,6.12,81.12,82.07,100.0,8.0,6.73
842,punta arenas,cl,3874787,-53.16,-70.91,54.55,50.0,40.0,29.97
843,longyearbyen,sj,2729907,78.22,15.64,8.6,84.0,75.0,4.7
844,casablanca,ma,2553604,33.6,-7.62,67.51,56.0,0.0,13.87
845,busselton,au,2075265,-33.64,115.35,58.24,44.0,0.0,22.28
846,bhubaneswar,in,1275817,20.26,85.84,82.4,94.0,20.0,4.7
847,punta arenas,cl,3874787,-53.16,-70.91,54.55,50.0,40.0,29.97
848,saint-philippe,re,935215,-21.36,55.77,75.92,61.0,0.0,4.7
849,hermanus,za,3366880,-34.42,19.24,66.34,79.0,20.0,8.99
850,mataura,pf,,,,,,,
851,goderich,sl,,,,,,,
852,jamestown,sh,3370903,-15.94,-5.72,77.21,99.0,92.0,16.13
853,asau,tv,,,,,,,
854,kasangulu,cd,2315057,-4.59,15.17,77.0,88.0,40.0,6.93
855,mazara del vallo,it,6541759,37.65,12.59,56.59,82.0,20.0,5.82
856,geraldton,au,2070998,-28.77,114.6,68.0,88.0,32.0,4.7
857,georgetown,sh,2411397,-7.93,-14.42,81.08,100.0,88.0,15.01
858,butaritari,ki,2110227,3.07,172.79,77.21,100.0,76.0,6.06
859,gigmoto,ph,1712961,13.78,124.39,76.22,100.0,36.0,7.18
860,ushuaia,ar,3833367,-54.81,-68.31,51.8,62.0,20.0,23.04
861,kracheh,kh,,,,,,,
862,cape town,za,3369157,-33.93,18.42,67.53,49.0,0.0,11.41
863,bukama,cd,217834,-9.2,25.85,81.89,56.0,20.0,5.39
864,upernavik,gl,3418910,72.79,-56.15,14.03,100.0,44.0,19.04
865,henties bay,na,3356832,-22.12,14.28,62.01,84.0,0.0,5.99
866,mataura,pf,,,,,,,
867,new norfolk,au,2155415,-42.78,147.06,58.19,62.0,0.0,8.05
868,khatanga,ru,2022572,71.98,102.47,19.7,92.0,68.0,6.73
869,upernavik,gl,3418910,72.79,-56.15,14.03,100.0,44.0,19.04
870,rikitea,pf,4030556,-23.12,-134.97,75.68,100.0,92.0,15.79
871,pisco,pe,3932145,-13.71,-76.2,71.6,30.0,0.0,10.29
872,minsk,by,625144,53.9,27.56,44.6,39.0,0.0,4.47
873,aflu,dz,,,,,,,
874,sassandra,ci,2281951,4.95,-6.09,85.22,93.0,36.0,10.76
875,port elizabeth,za,964420,-33.92,25.57,64.4,77.0,75.0,14.99
876,ushuaia,ar,3833367,-54.81,-68.31,51.8,62.0,20.0,23.04
877,puerto ayora,ec,3652764,-0.74,-90.35,83.88,70.0,20.0,10.29
878,punta arenas,cl,3874787,-53.16,-70.91,54.55,50.0,40.0,29.97
879,waddan,ly,2209055,29.16,16.14,66.5,50.0,0.0,10.65
880,mvangue,cm,2225703,2.97,11.5,73.07,95.0,24.0,2.15
881,ilulissat,gl,3423146,69.22,-51.1,37.4,69.0,75.0,24.16
882,yellowknife,ca,6185377,62.45,-114.38,5.72,71.0,20.0,14.99
883,alakurtti,ru,583472,66.96,30.34,37.0,51.0,64.0,5.99
884,punta arenas,cl,3874787,-53.16,-70.91,54.55,50.0,40.0,29.97
885,kodiak,us,4407665,39.95,-94.76,43.29,75.0,90.0,10.29
886,bathsheba,bb,3374083,13.22,-59.52,86.0,55.0,20.0,26.4
887,puerto ayora,ec,3652764,-0.74,-90.35,83.88,70.0,20.0,10.29
888,yagodnoye,ru,2119626,62.52,149.63,11.15,92.0,76.0,2.04
889,thompson,ca,6165406,55.74,-97.86,12.2,66.0,75.0,11.41
890,airai,pw,,,,,,,
891,taolanaro,mg,,,,,,,
892,vaini,to,4032243,-21.2,-175.2,75.2,83.0,20.0,8.05
893,avera,pf,,,,,,,
894,jaru,br,3925040,-10.43,-62.48,92.6,58.0,20.0,2.93
895,mataura,pf,,,,,,,
896,port elizabeth,za,964420,-33.92,25.57,64.4,77.0,75.0,14.99
897,cockburn town,tc,3576994,21.46,-71.14,78.2,100.0,12.0,9.53
898,puerto escondido,mx,3520994,15.86,-97.07,80.6,74.0,5.0,11.41
899,taolanaro,mg,,,,,,,
900,nguru,ng,2328952,12.88,10.45,93.59,14.0,8.0,11.54
901,arraial do cabo,br,3471451,-22.97,-42.02,83.55,45.0,20.0,5.82
902,ambodifototra,mg,,,,,,,
903,belushya guba,ru,,,,,,,
904,newport,us,5223593,41.49,-71.31,46.96,52.0,1.0,16.11
905,cidreira,br,3466165,-30.17,-50.22,83.6,76.0,20.0,2.71
906,ossora,ru,2122389,59.24,163.07,31.22,92.0,92.0,21.05
907,sentyabrskiy,ru,,,,,,,
908,ushuaia,ar,3833367,-54.81,-68.31,51.8,62.0,20.0,23.04
909,walvis bay,na,3359638,-22.95,14.51,64.92,52.0,0.0,8.05
910,cape town,za,3369157,-33.93,18.42,67.53,49.0,0.0,11.41
911,lebu,cl,3883457,-37.62,-73.65,58.13,87.0,0.0,22.62
912,jamestown,sh,3370903,-15.94,-5.72,77.21,99.0,92.0,16.13
913,saleaula,ws,,,,,,,
914,butaritari,ki,2110227,3.07,172.79,77.21,100.0,76.0,6.06
915,asau,tv,,,,,,,
916,kruisfontein,za,986717,-34.0,24.73,62.45,71.0,12.0,12.77
917,mataura,pf,,,,,,,
918,vaini,to,4032243,-21.2,-175.2,75.2,83.0,20.0,8.05
919,albany,au,2077963,-35.02,117.88,59.0,93.0,75.0,9.17
920,norman wells,ca,6089245,65.28,-126.83,10.4,66.0,75.0,16.11
921,ushuaia,ar,3833367,-54.81,-68.31,51.8,62.0,20.0,23.04
922,marsa matruh,eg,352733,31.35,27.25,60.8,67.0,0.0,5.82
923,albany,au,2077963,-35.02,117.88,59.0,93.0,75.0,9.17
924,nanortalik,gl,3421765,60.14,-45.24,33.65,93.0,92.0,25.86
925,bintulu,my,1737486,3.17,113.03,75.04,94.0,75.0,4.7
926,zhangjiakou,cn,2033196,40.77,114.88,22.13,74.0,0.0,2.48
927,lebu,cl,3883457,-37.62,-73.65,58.13,87.0,0.0,22.62
928,yellowknife,ca,6185377,62.45,-114.38,5.72,71.0,20.0,14.99
929,saint-philippe,re,935215,-21.36,55.77,75.92,61.0,0.0,4.7
930,tuktoyaktuk,ca,6170031,69.44,-133.03,-0.41,77.0,40.0,10.29
931,rikitea,pf,4030556,-23.12,-134.97,75.68,100.0,92.0,15.79
932,butaritari,ki,2110227,3.07,172.79,77.21,100.0,76.0,6.06
933,belushya guba,ru,,,,,,,
934,albany,au,2077963,-35.02,117.88,59.0,93.0,75.0,9.17
935,belushya guba,ru,,,,,,,
936,atuona,pf,4020109,-9.8,-139.03,81.98,100.0,0.0,12.21
937,kodiak,us,4407665,39.95,-94.76,43.29,75.0,90.0,10.29
938,belaya gora,ru,2126785,68.54,146.19,0.62,62.0,48.0,3.49
939,port alfred,za,964432,-33.59,26.89,64.0,84.0,48.0,5.99
940,mataura,pf,,,,,,,
941,chuy,uy,3443061,-33.69,-53.46,80.9,82.0,32.0,7.4
942,zamora,es,3104342,41.51,-5.74,62.6,27.0,20.0,16.11
943,teshie,gh,2306104,5.58,-0.11,87.8,70.0,0.0,12.75
944,kitimat,ca,5993072,54.02,-128.69,42.28,60.0,20.0,10.29
945,candawaga,ph,,,,,,,
946,busselton,au,2075265,-33.64,115.35,58.24,44.0,0.0,22.28
947,hilo,us,5855927,19.71,-155.08,67.84,72.0,40.0,5.82
948,rikitea,pf,4030556,-23.12,-134.97,75.68,100.0,92.0,15.79
949,joaima,br,3459867,-16.65,-41.03,84.23,60.0,0.0,4.05
950,puerto ayora,ec,3652764,-0.74,-90.35,83.88,70.0,20.0,10.29
951,tsihombe,mg,,,,,,,
952,rikitea,pf,4030556,-23.12,-134.97,75.68,100.0,92.0,15.79
953,lavrentiya,ru,4031637,65.58,-170.99,24.29,96.0,64.0,6.4
954,saint anthony,ca,,,,,,,
955,liverpool,ca,6057856,44.04,-64.71,46.0,44.0,0.0,8.01
956,klaksvik,fo,2618795,62.23,-6.59,37.4,69.0,44.0,25.28
957,canberra,au,2172517,-35.3,149.1,50.36,100.0,92.0,1.92
958,barentsburg,sj,,,,,,,
959,torbay,ca,6167817,47.66,-52.73,37.53,37.0,20.0,29.97
960,mataura,pf,,,,,,,
961,vagur,fo,2610806,61.47,-6.81,42.02,100.0,8.0,26.87
962,esperance,au,2071860,-33.86,121.89,59.0,87.0,90.0,8.05
963,ushuaia,ar,3833367,-54.81,-68.31,51.8,62.0,20.0,23.04
964,vaini,to,4032243,-21.2,-175.2,75.2,83.0,20.0,8.05
965,saldanha,za,3361934,-33.01,17.94,65.6,51.0,0.0,11.54
966,chokurdakh,ru,2126123,70.62,147.9,3.05,65.0,64.0,2.93
967,saleaula,ws,,,,,,,
968,hofn,is,2630299,64.25,-15.21,32.75,100.0,0.0,18.81
969,pochutla,mx,3517970,15.74,-96.47,85.98,55.0,20.0,6.06
970,hilo,us,5855927,19.71,-155.08,67.84,72.0,40.0,5.82
971,guerrero negro,mx,4021858,27.97,-114.04,70.46,51.0,20.0,3.6
972,ushuaia,ar,3833367,-54.81,-68.31,51.8,62.0,20.0,23.04
973,along,in,1278969,28.17,94.8,54.08,94.0,92.0,1.59
974,atuona,pf,4020109,-9.8,-139.03,81.98,100.0,0.0,12.21
975,fredericton,ca,5957776,45.97,-66.65,44.08,28.0,20.0,18.34
976,barrow,us,4252975,39.51,-90.4,55.06,64.0,90.0,16.11
977,macenta,gn,2417988,8.55,-9.47,69.02,98.0,92.0,2.15
978,busselton,au,2075265,-33.64,115.35,58.24,44.0,0.0,22.28
979,kapaa,us,5848280,22.08,-159.32,68.52,78.0,75.0,10.29
980,khatanga,ru,2022572,71.98,102.47,19.7,92.0,68.0,6.73
981,avarua,ck,4035715,-21.21,-159.78,78.8,83.0,8.0,18.34
982,mys shmidta,ru,,,,,,,
983,talnakh,ru,1490256,69.49,88.39,17.0,72.0,48.0,3.04
984,igarape-miri,br,,,,,,,
985,punta arenas,cl,3874787,-53.16,-70.91,54.55,50.0,40.0,29.97
986,mataura,pf,,,,,,,
987,walla walla,us,5814916,46.06,-118.33,53.28,57.0,1.0,8.05
988,puri,in,1259184,19.8,85.85,82.4,94.0,20.0,4.7
989,mae ramat,th,1152202,16.98,98.52,72.17,75.0,0.0,2.04
990,hilo,us,5855927,19.71,-155.08,67.84,72.0,40.0,5.82
991,nizhneyansk,ru,,,,,,,
992,evensk,ru,2125693,61.92,159.24,31.49,86.0,0.0,11.54
993,chuy,uy,3443061,-33.69,-53.46,80.9,82.0,32.0,7.4
994,vestmannaeyjar,is,3412093,63.44,-20.27,32.0,86.0,0.0,26.4
995,albany,au,2077963,-35.02,117.88,59.0,93.0,75.0,9.17
996,hamilton,bm,3573197,32.3,-64.78,68.0,77.0,75.0,20.8
997,mataura,pf,,,,,,,
998,mataura,pf,,,,,,,
999,lebu,cl,3883457,-37.62,-73.65,58.13,87.0,0.0,22.62
1000,podosinovets,ru,508068,60.28,47.06,27.44,86.0,12.0,4.5
1001,daye,cn,1813206,30.1,114.98,52.01,100.0,92.0,6.17
1002,carnarvon,au,2074865,-24.87,113.63,77.0,78.0,12.0,11.41
1003,kapaa,us,5848280,22.08,-159.32,68.52,78.0,75.0,10.29
1004,east london,za,1006984,-33.02,27.91,60.8,93.0,40.0,3.36
1005,hithadhoo,mv,1282256,-0.6,73.08,84.59,100.0,32.0,7.4
1006,ushuaia,ar,3833367,-54.81,-68.31,51.8,62.0,20.0,23.04
1007,chagda,ru,,,,,,,
1008,atar,mr,2381334,20.52,-13.05,69.92,83.0,92.0,10.54
1009,klaksvik,fo,2618795,62.23,-6.59,37.4,69.0,44.0,25.28
1010,aracuai,br,3471846,-16.85,-42.07,86.12,58.0,0.0,4.05
1011,tasiilaq,gl,3424607,65.61,-37.64,23.0,85.0,90.0,20.8
1012,rikitea,pf,4030556,-23.12,-134.97,75.68,100.0,92.0,15.79
1013,port elizabeth,za,964420,-33.92,25.57,64.4,77.0,75.0,14.99
1014,verkhnevilyuysk,ru,2013639,63.45,120.31,26.9,86.0,8.0,6.96
1015,aklavik,ca,5882953,68.22,-135.01,5.0,77.0,90.0,9.17
1016,ushuaia,ar,3833367,-54.81,-68.31,51.8,62.0,20.0,23.04
1017,cape town,za,3369157,-33.93,18.42,67.53,49.0,0.0,11.41
1018,sur,om,286245,22.57,59.53,79.82,82.0,68.0,5.06
1019,geraldton,au,2070998,-28.77,114.6,68.0,88.0,32.0,4.7
1020,songjianghe,cn,2034691,42.18,127.48,8.81,59.0,0.0,2.59
1021,fortuna,us,5563839,40.6,-124.16,53.65,100.0,90.0,11.41
1022,bathsheba,bb,3374083,13.22,-59.52,86.0,55.0,20.0,26.4
1023,rikitea,pf,4030556,-23.12,-134.97,75.68,100.0,92.0,15.79
1024,punta arenas,cl,3874787,-53.16,-70.91,54.55,50.0,40.0,29.97
1025,tieli,cn,2034440,46.98,128.05,23.75,44.0,0.0,7.4
1026,sitka,us,4267710,37.17,-99.65,57.59,57.0,68.0,13.67
1027,victoria,sc,241131,-4.62,55.45,84.2,79.0,20.0,3.36
1028,meyungs,pw,,,,,,,
1029,upernavik,gl,3418910,72.79,-56.15,14.03,100.0,44.0,19.04
1030,rikitea,pf,4030556,-23.12,-134.97,75.68,100.0,92.0,15.79
1031,cape town,za,3369157,-33.93,18.42,67.53,49.0,0.0,11.41
1032,saint-philippe,re,935215,-21.36,55.77,75.92,61.0,0.0,4.7
1033,saskylakh,ru,2017155,71.97,114.09,23.39,85.0,80.0,4.05
1034,tuktoyaktuk,ca,6170031,69.44,-133.03,-0.41,77.0,40.0,10.29
1035,belushya guba,ru,,,,,,,
1036,at-bashi,kg,1528796,41.17,75.81,18.8,62.0,0.0,3.04
1037,moa,cu,3546791,20.66,-74.95,80.9,61.0,36.0,4.5
1038,rikitea,pf,4030556,-23.12,-134.97,75.68,100.0,92.0,15.79
1039,qaanaaq,gl,3831208,77.48,-69.36,-0.46,74.0,0.0,8.41
1040,rikitea,pf,4030556,-23.12,-134.97,75.68,100.0,92.0,15.79
1041,ranong,th,1150965,9.96,98.62,82.25,100.0,24.0,3.04
1042,meulaboh,id,1214488,4.14,96.13,80.45,100.0,48.0,4.72
1043,santa vitoria do palmar,br,3449747,-33.52,-53.37,80.9,82.0,32.0,7.4
1044,sibolga,id,1213855,1.74,98.78,69.29,100.0,48.0,1.7
1045,port alfred,za,964432,-33.59,26.89,64.0,84.0,48.0,5.99
1046,lompoc,us,5367788,34.64,-120.46,60.87,72.0,40.0,5.17
1047,atuona,pf,4020109,-9.8,-139.03,81.98,100.0,0.0,12.21
1048,nuuk,gl,3421319,64.17,-51.74,37.4,93.0,90.0,8.05
1049,barrow,us,4252975,39.51,-90.4,55.06,64.0,90.0,16.11
1050,nemuro,jp,2128975,43.32,145.57,30.05,100.0,8.0,10.54
1051,qaanaaq,gl,3831208,77.48,-69.36,-0.46,74.0,0.0,8.41
1052,hermanus,za,3366880,-34.42,19.24,66.34,79.0,20.0,8.99
1053,chifeng,cn,2038067,42.27,118.96,19.88,48.0,0.0,3.71
1054,cape town,za,3369157,-33.93,18.42,67.53,49.0,0.0,11.41
1055,rikitea,pf,4030556,-23.12,-134.97,75.68,100.0,92.0,15.79
1056,saint-georges,gf,,,,,,,
1057,sitka,us,4267710,37.17,-99.65,57.59,57.0,68.0,13.67
1058,punta arenas,cl,3874787,-53.16,-70.91,54.55,50.0,40.0,29.97
1059,ilulissat,gl,3423146,69.22,-51.1,37.4,69.0,75.0,24.16
1060,tuktoyaktuk,ca,6170031,69.44,-133.03,-0.41,77.0,40.0,10.29
1061,udachnyy,ru,2014624,66.42,112.4,30.14,88.0,80.0,3.15
1062,tsihombe,mg,,,,,,,
1063,east london,za,1006984,-33.02,27.91,60.8,93.0,40.0,3.36
1064,visby,se,2662689,57.64,18.3,43.77,36.0,0.0,16.11
1065,cape town,za,3369157,-33.93,18.42,67.53,49.0,0.0,11.41
1066,hilo,us,5855927,19.71,-155.08,67.84,72.0,40.0,5.82
1067,mataura,pf,,,,,,,
1068,ushuaia,ar,3833367,-54.81,-68.31,51.8,62.0,20.0,23.04
1069,chuy,uy,3443061,-33.69,-53.46,80.9,82.0,32.0,7.4
1070,atuona,pf,4020109,-9.8,-139.03,81.98,100.0,0.0,12.21
1071,kapaa,us,5848280,22.08,-159.32,68.52,78.0,75.0,10.29
1072,salinopolis,br,3389822,-0.61,-47.36,82.34,98.0,64.0,8.19
1073,berlevag,no,780687,70.86,29.09,29.82,100.0,75.0,9.17
1074,vaini,to,4032243,-21.2,-175.2,75.2,83.0,20.0,8.05
1075,avera,pf,,,,,,,
1076,cherskiy,ru,2126199,68.75,161.3,28.97,81.0,92.0,7.4
1077,new norfolk,au,2155415,-42.78,147.06,58.19,62.0,0.0,8.05
1078,esperance,au,2071860,-33.86,121.89,59.0,87.0,90.0,8.05
1079,yerofey pavlovich,ru,2012938,53.97,121.97,26.9,51.0,80.0,4.94
1080,illoqqortoormiut,gl,,,,,,,
1081,pisco,pe,3932145,-13.71,-76.2,71.6,30.0,0.0,10.29
1082,udimskiy,ru,479619,61.14,45.92,27.53,86.0,20.0,8.19
1083,turukhansk,ru,1488903,65.8,87.96,29.51,91.0,92.0,4.94
1084,hermanus,za,3366880,-34.42,19.24,66.34,79.0,20.0,8.99
1085,taolanaro,mg,,,,,,,
1086,bathsheba,bb,3374083,13.22,-59.52,86.0,55.0,20.0,26.4
1087,srednekolymsk,ru,2121025,67.46,153.71,4.94,85.0,24.0,2.37
1088,ushuaia,ar,3833367,-54.81,-68.31,51.8,62.0,20.0,23.04
1089,manzanillo,mx,3996663,19.05,-104.32,80.99,66.0,0.0,3.6
1090,tuktoyaktuk,ca,6170031,69.44,-133.03,-0.41,77.0,40.0,10.29
1091,cherskiy,ru,2126199,68.75,161.3,28.97,81.0,92.0,7.4
1092,kiunga,pg,2093846,-6.12,141.3,72.44,97.0,80.0,2.37
1093,hithadhoo,mv,1282256,-0.6,73.08,84.59,100.0,32.0,7.4
1094,provideniya,ru,4031574,64.42,-173.23,21.32,100.0,8.0,11.65
1095,severo-kurilsk,ru,2121385,50.68,156.12,30.77,99.0,88.0,18.7
1096,ushuaia,ar,3833367,-54.81,-68.31,51.8,62.0,20.0,23.04
1097,kaitangata,nz,2208248,-46.28,169.85,48.99,64.0,8.0,3.0
1098,arraial do cabo,br,3471451,-22.97,-42.02,83.55,45.0,20.0,5.82
1099,hobart,au,2163355,-42.88,147.33,58.19,62.0,0.0,8.05
1100,bluff,nz,2206939,-46.6,168.33,44.01,91.0,56.0,11.21
1101,puerto ayora,ec,3652764,-0.74,-90.35,83.88,70.0,20.0,10.29
1102,pangnirtung,ca,6096551,66.15,-65.72,-0.41,84.0,90.0,9.17
1103,esperance,au,2071860,-33.86,121.89,59.0,87.0,90.0,8.05
1104,victoria,sc,241131,-4.62,55.45,84.2,79.0,20.0,3.36
1105,yulara,au,6355222,-25.24,130.99,62.6,23.0,0.0,6.93
1106,ahipara,nz,2194098,-35.17,173.16,57.86,100.0,56.0,10.09
1107,carutapera,br,3402648,-1.2,-46.02,83.33,89.0,8.0,4.16
1108,kaitangata,nz,2208248,-46.28,169.85,48.99,64.0,8.0,3.0
1109,hithadhoo,mv,1282256,-0.6,73.08,84.59,100.0,32.0,7.4
1110,ushuaia,ar,3833367,-54.81,-68.31,51.8,62.0,20.0,23.04
1111,khatanga,ru,2022572,71.98,102.47,19.7,92.0,68.0,6.73
1112,hamilton,bm,3573197,32.3,-64.78,68.0,77.0,75.0,20.8
1113,san patricio,mx,3985168,19.22,-104.7,82.4,78.0,5.0,11.41
1114,busselton,au,2075265,-33.64,115.35,58.24,44.0,0.0,22.28
1115,siavonga,zm,898188,-16.54,28.71,83.42,50.0,92.0,4.61
1116,qarqin,af,1129516,37.41,66.03,71.45,59.0,48.0,12.44
1117,butaritari,ki,2110227,3.07,172.79,77.21,100.0,76.0,6.06
1118,avarua,ck,4035715,-21.21,-159.78,78.8,83.0,8.0,18.34
1119,vaitupu,wf,,,,,,,
1120,bambous virieux,mu,1106677,-20.34,57.76,77.92,78.0,20.0,7.4
1121,hilo,us,5855927,19.71,-155.08,67.84,72.0,40.0,5.82
1122,yellowknife,ca,6185377,62.45,-114.38,5.72,71.0,20.0,14.99
1123,mocuba,mz,1024312,-16.84,36.99,73.79,66.0,0.0,7.63
1124,rikitea,pf,4030556,-23.12,-134.97,75.68,100.0,92.0,15.79
1125,hasaki,jp,2112802,35.73,140.83,32.99,64.0,20.0,6.93
1126,vaini,to,4032243,-21.2,-175.2,75.2,83.0,20.0,8.05
1127,atuona,pf,4020109,-9.8,-139.03,81.98,100.0,0.0,12.21
1128,victoria,sc,241131,-4.62,55.45,84.2,79.0,20.0,3.36
1129,angoche,mz,1052944,-16.23,39.91,79.19,100.0,68.0,15.12
1130,kushmurun,kz,,,,,,,
1131,antofagasta,cl,3899539,-23.65,-70.4,69.8,52.0,0.0,13.87
1132,rikitea,pf,4030556,-23.12,-134.97,75.68,100.0,92.0,15.79
1133,bluff,nz,2206939,-46.6,168.33,44.01,91.0,56.0,11.21
1134,verkhnevilyuysk,ru,2013639,63.45,120.31,26.9,86.0,8.0,6.96
1135,ushuaia,ar,3833367,-54.81,-68.31,51.8,62.0,20.0,23.04
1136,ribeira grande,pt,3372707,38.52,-28.7,60.8,59.0,20.0,13.87
1137,rincon,us,4218882,32.3,-81.24,51.13,71.0,90.0,14.99
1138,qaanaaq,gl,3831208,77.48,-69.36,-0.46,74.0,0.0,8.41
1139,kashary,ru,552006,49.04,41.01,40.67,74.0,92.0,15.57
1140,rikitea,pf,4030556,-23.12,-134.97,75.68,100.0,92.0,15.79
1141,albany,au,2077963,-35.02,117.88,59.0,93.0,75.0,9.17
1142,vila velha,br,6320062,-3.71,-38.6,82.96,70.0,75.0,12.75
1143,victoria,sc,241131,-4.62,55.45,84.2,79.0,20.0,3.36
1144,cherskiy,ru,2126199,68.75,161.3,28.97,81.0,92.0,7.4
1145,pevek,ru,2122090,69.7,170.27,19.97,75.0,20.0,14.12
1146,rikitea,pf,4030556,-23.12,-134.97,75.68,100.0,92.0,15.79
1147,sinnamary,gf,3380290,5.38,-52.96,82.79,87.0,36.0,10.98
1148,hami,cn,1529484,42.84,93.51,52.19,48.0,48.0,5.95
1149,tasiilaq,gl,3424607,65.61,-37.64,23.0,85.0,90.0,20.8
1150,saint-philippe,re,935215,-21.36,55.77,75.92,61.0,0.0,4.7
1151,ulaanbaatar,mn,2028462,47.92,106.92,21.2,57.0,40.0,2.24
1152,hasaki,jp,2112802,35.73,140.83,32.99,64.0,20.0,6.93
1153,dunedin,nz,2191562,-45.87,170.5,48.0,85.0,0.0,1.99
1154,hobart,au,2163355,-42.88,147.33,58.19,62.0,0.0,8.05
1155,sitka,us,4267710,37.17,-99.65,57.59,57.0,68.0,13.67
1156,rikitea,pf,4030556,-23.12,-134.97,75.68,100.0,92.0,15.79
1157,lasa,cn,,,,,,,
1158,upernavik,gl,3418910,72.79,-56.15,14.03,100.0,44.0,19.04
1159,hithadhoo,mv,1282256,-0.6,73.08,84.59,100.0,32.0,7.4
1160,zhangye,cn,1785036,38.94,100.46,38.6,71.0,88.0,8.41
1161,semirom,ir,116406,31.41,51.57,28.52,41.0,0.0,4.05
1162,taksimo,ru,2015701,56.36,114.84,8.99,75.0,0.0,2.59
1163,busselton,au,2075265,-33.64,115.35,58.24,44.0,0.0,22.28
1164,khatanga,ru,2022572,71.98,102.47,19.7,92.0,68.0,6.73
1165,saldanha,za,3361934,-33.01,17.94,65.6,51.0,0.0,11.54
1166,san cristobal,ec,3652567,-1.02,-79.44,67.31,100.0,76.0,3.15
1167,kaitangata,nz,2208248,-46.28,169.85,48.99,64.0,8.0,3.0
1168,tsabong,bw,932987,-26.02,22.4,72.8,60.0,48.0,6.62
1169,puerto escondido,mx,3520994,15.86,-97.07,80.6,74.0,5.0,11.41
1170,sao filipe,cv,3374210,14.9,-24.5,71.9,94.0,0.0,13.44
1171,cape town,za,3369157,-33.93,18.42,67.53,49.0,0.0,11.41
1172,khatanga,ru,2022572,71.98,102.47,19.7,92.0,68.0,6.73
1173,rikitea,pf,4030556,-23.12,-134.97,75.68,100.0,92.0,15.79
1174,torbay,ca,6167817,47.66,-52.73,37.53,37.0,20.0,29.97
1175,bethel,us,5880568,60.79,-161.76,27.52,100.0,1.0,8.05
1176,innisfail,au,2162683,-17.52,146.03,70.55,96.0,92.0,4.94
1177,barentsburg,sj,,,,,,,
1178,victoria,sc,241131,-4.62,55.45,84.2,79.0,20.0,3.36
1179,dharchula,in,1272864,29.85,80.53,35.72,69.0,0.0,2.48
1180,grindavik,is,3416888,63.84,-22.43,34.05,100.0,0.0,11.41
1181,richards bay,za,962367,-28.77,32.06,65.6,100.0,92.0,3.71
1182,rikitea,pf,4030556,-23.12,-134.97,75.68,100.0,92.0,15.79
1183,jesus maria,co,,,,,,,
1184,atuona,pf,4020109,-9.8,-139.03,81.98,100.0,0.0,12.21
1185,khandyga,ru,2022773,62.65,135.58,4.22,60.0,0.0,2.37
1186,mataura,pf,,,,,,,
1187,tasiilaq,gl,3424607,65.61,-37.64,23.0,85.0,90.0,20.8
1188,atuona,pf,4020109,-9.8,-139.03,81.98,100.0,0.0,12.21
1189,novyy urengoy,ru,1496511,66.08,76.63,20.24,86.0,12.0,14.56
1190,humberto de campos,br,3398428,-2.6,-43.46,81.44,100.0,36.0,9.98
1191,nikolskoye,ru,546105,59.7,30.79,35.51,55.0,0.0,4.47
1192,rio gallegos,ar,3838859,-51.62,-69.22,60.8,51.0,40.0,21.92
1193,isangel,vu,2136825,-19.55,169.27,80.54,100.0,48.0,15.46
1194,arraial do cabo,br,3471451,-22.97,-42.02,83.55,45.0,20.0,5.82
1195,jamestown,sh,3370903,-15.94,-5.72,77.21,99.0,92.0,16.13
1196,mar del plata,ar,3863379,-46.43,-67.52,72.62,31.0,0.0,18.81
1197,tuktoyaktuk,ca,6170031,69.44,-133.03,-0.41,77.0,40.0,10.29
1198,ushuaia,ar,3833367,-54.81,-68.31,51.8,62.0,20.0,23.04
1199,saleaula,ws,,,,,,,
1200,mataura,pf,,,,,,,
1201,hermanus,za,3366880,-34.42,19.24,66.34,79.0,20.0,8.99
1202,atuona,pf,4020109,-9.8,-139.03,81.98,100.0,0.0,12.21
1203,ushuaia,ar,3833367,-54.81,-68.31,51.8,62.0,20.0,23.04
1204,porto novo,cv,3374336,17.02,-25.06,77.0,53.0,40.0,11.41
1205,olaine,lv,457052,56.79,23.93,43.74,28.0,0.0,8.05
1206,mataura,pf,,,,,,,
1207,tigil,ru,2120612,57.8,158.67,25.64,81.0,44.0,10.65
1208,butaritari,ki,2110227,3.07,172.79,77.21,100.0,76.0,6.06
1209,kavieng,pg,2094342,-2.57,150.8,84.14,99.0,48.0,10.65
1210,flinders,au,6255012,-34.58,150.85,57.22,100.0,0.0,2.71
1211,vestmannaeyjar,is,3412093,63.44,-20.27,32.0,86.0,0.0,26.4
1212,mataura,pf,,,,,,,
1213,bluff,nz,2206939,-46.6,168.33,44.01,91.0,56.0,11.21
1214,concepcion del oro,mx,4013039,24.63,-101.42,71.54,27.0,12.0,3.04
1215,port hawkesbury,ca,6111867,45.62,-61.36,43.61,38.0,1.0,13.87
1216,muros,es,3115824,42.77,-9.06,54.9,71.0,40.0,14.99
1217,sao paulo de olivenca,br,3662252,-3.38,-68.87,94.85,51.0,0.0,2.04
1218,lebu,cl,3883457,-37.62,-73.65,58.13,87.0,0.0,22.62
1219,severo-kurilsk,ru,2121385,50.68,156.12,30.77,99.0,88.0,18.7
1220,thompson,ca,6165406,55.74,-97.86,12.2,66.0,75.0,11.41
1221,butaritari,ki,2110227,3.07,172.79,77.21,100.0,76.0,6.06
1222,tasiilaq,gl,3424607,65.61,-37.64,23.0,85.0,90.0,20.8
1223,saint-philippe,re,935215,-21.36,55.77,75.92,61.0,0.0,4.7
1224,faanui,pf,4034551,-16.48,-151.75,84.23,100.0,0.0,11.21
1225,chancay,pe,3944399,-11.56,-77.27,75.58,69.0,40.0,9.17
1226,port elizabeth,za,964420,-33.92,25.57,64.4,77.0,75.0,14.99
1227,albany,au,2077963,-35.02,117.88,59.0,93.0,75.0,9.17
1228,adamovka,ru,584279,51.52,59.94,37.52,90.0,80.0,15.68
1229,rikitea,pf,4030556,-23.12,-134.97,75.68,100.0,92.0,15.79
1230,busselton,au,2075265,-33.64,115.35,58.24,44.0,0.0,22.28
1231,ushuaia,ar,3833367,-54.81,-68.31,51.8,62.0,20.0,23.04
1232,itoman,jp,1861280,26.12,127.67,61.86,72.0,90.0,4.7
1233,vaini,to,4032243,-21.2,-175.2,75.2,83.0,20.0,8.05
1234,padang,id,1633419,-0.92,100.36,84.05,100.0,24.0,4.61
1235,albany,au,2077963,-35.02,117.88,59.0,93.0,75.0,9.17
1236,mataura,pf,,,,,,,
1237,henties bay,na,3356832,-22.12,14.28,62.01,84.0,0.0,5.99
1238,bluff,nz,2206939,-46.6,168.33,44.01,91.0,56.0,11.21
1239,kapaa,us,5848280,22.08,-159.32,68.52,78.0,75.0,10.29
1240,mataura,pf,,,,,,,
1241,mount gambier,au,2156643,-37.83,140.78,55.4,66.0,44.0,10.29
1242,jamestown,sh,3370903,-15.94,-5.72,77.21,99.0,92.0,16.13
1243,yellowknife,ca,6185377,62.45,-114.38,5.72,71.0,20.0,14.99
1244,port macquarie,au,2152659,-31.43,152.91,58.15,100.0,76.0,8.05
1245,merke,kz,1520969,42.87,73.19,28.79,78.0,48.0,1.92
1246,ayer itam,my,,,,,,,
1247,dikson,ru,1507390,73.51,80.55,23.12,98.0,32.0,26.19
1248,ushuaia,ar,3833367,-54.81,-68.31,51.8,62.0,20.0,23.04
1249,bima,id,1648759,-8.45,118.73,72.44,100.0,0.0,2.59
1250,mataura,pf,,,,,,,
1251,hermanus,za,3366880,-34.42,19.24,66.34,79.0,20.0,8.99
1252,hobart,au,2163355,-42.88,147.33,58.19,62.0,0.0,8.05
1253,elizabeth city,us,4465088,36.3,-76.22,48.4,87.0,90.0,16.11
1254,hithadhoo,mv,1282256,-0.6,73.08,84.59,100.0,32.0,7.4
1255,atuona,pf,4020109,-9.8,-139.03,81.98,100.0,0.0,12.21
1256,plettenberg bay,za,964712,-34.05,23.37,64.79,100.0,20.0,22.84
1257,thomastown,ie,2961224,52.53,-7.14,41.86,73.0,36.0,8.99
1258,taolanaro,mg,,,,,,,
1259,iqaluit,ca,5983720,63.75,-68.52,-4.69,70.0,90.0,29.97
1260,mys shmidta,ru,,,,,,,
1261,zhigalovo,ru,2012532,54.81,105.15,25.19,74.0,68.0,4.5
1262,kloulklubed,pw,7671223,7.04,134.26,77.0,94.0,75.0,6.93
1263,vrede,za,942701,-27.43,29.16,55.52,92.0,92.0,3.49
1264,cape town,za,3369157,-33.93,18.42,67.53,49.0,0.0,11.41
1265,isangel,vu,2136825,-19.55,169.27,80.54,100.0,48.0,15.46
1266,ahipara,nz,2194098,-35.17,173.16,57.86,100.0,56.0,10.09
1267,stranda,no,3135813,62.31,6.93,41.72,70.0,0.0,11.41
1268,katsuura,jp,1865309,33.93,134.5,39.43,86.0,20.0,6.93
1269,umzimvubu,za,,,,,,,
1270,yarada,in,1252783,17.65,83.27,82.4,83.0,0.0,6.93
1271,elat,il,,,,,,,
1272,ayagoz,kz,1525988,47.96,80.43,41.03,79.0,0.0,8.41
1273,krasnoselkup,ru,,,,,,,
1274,rikitea,pf,4030556,-23.12,-134.97,75.68,100.0,92.0,15.79
1275,leh,in,1264976,34.16,77.58,-7.12,54.0,32.0,1.59
1276,clyde river,ca,5924351,70.47,-68.59,3.2,84.0,90.0,32.21
1277,kodiak,us,4407665,39.95,-94.76,43.29,75.0,90.0,10.29
1278,suntar,ru,2015913,62.16,117.65,27.08,76.0,0.0,7.07
1279,yellowknife,ca,6185377,62.45,-114.38,5.72,71.0,20.0,14.99
1280,mahebourg,mu,934322,-20.41,57.7,77.83,78.0,20.0,7.4
1281,labytnangi,ru,1500933,66.66,66.39,18.44,79.0,0.0,12.21
1282,busselton,au,2075265,-33.64,115.35,58.24,44.0,0.0,22.28
1283,barrow,us,4252975,39.51,-90.4,55.06,64.0,90.0,16.11
1284,punta arenas,cl,3874787,-53.16,-70.91,54.55,50.0,40.0,29.97
1285,ushuaia,ar,3833367,-54.81,-68.31,51.8,62.0,20.0,23.04
1286,mahebourg,mu,934322,-20.41,57.7,77.83,78.0,20.0,7.4
1287,hobart,au,2163355,-42.88,147.33,58.19,62.0,0.0,8.05
1288,yangambi,cd,203717,0.77,24.47,86.12,55.0,0.0,4.38
1289,butaritari,ki,2110227,3.07,172.79,77.21,100.0,76.0,6.06
1290,kavieng,pg,2094342,-2.57,150.8,84.14,99.0,48.0,10.65
1291,iqaluit,ca,5983720,63.75,-68.52,-4.69,70.0,90.0,29.97
1292,butaritari,ki,2110227,3.07,172.79,77.21,100.0,76.0,6.06
1293,cerro azul,mx,3531321,21.19,-97.74,70.37,86.0,36.0,3.94
1294,hollins,us,4764534,37.35,-79.95,43.09,41.0,75.0,3.36
1295,punta arenas,cl,3874787,-53.16,-70.91,54.55,50.0,40.0,29.97
1296,mys shmidta,ru,,,,,,,
1297,bluff,nz,2206939,-46.6,168.33,44.01,91.0,56.0,11.21
1298,bambous virieux,mu,1106677,-20.34,57.76,77.92,78.0,20.0,7.4
1299,kuito,ao,3348078,-12.38,16.94,80.6,74.0,20.0,11.41
1300,severo-kurilsk,ru,2121385,50.68,156.12,30.77,99.0,88.0,18.7
1301,puerto ayora,ec,3652764,-0.74,-90.35,83.88,70.0,20.0,10.29
1302,coahuayana,mx,3981460,18.62,-100.35,85.13,22.0,0.0,3.04
1303,illoqqortoormiut,gl,,,,,,,
1304,norman wells,ca,6089245,65.28,-126.83,10.4,66.0,75.0,16.11
1305,cape town,za,3369157,-33.93,18.42,67.53,49.0,0.0,11.41
1306,vinukonda,in,1253150,16.05,79.74,80.54,72.0,0.0,8.19
1307,santa rosa,bo,3904890,-20.7,-64.83,60.29,94.0,88.0,2.37
1308,joaima,br,3459867,-16.65,-41.03,84.23,60.0,0.0,4.05
1309,cherskiy,ru,2126199,68.75,161.3,28.97,81.0,92.0,7.4
1310,lagoa,pt,2267254,37.14,-8.45,63.73,77.0,20.0,9.17
1311,bubaque,gw,2374583,11.28,-15.83,87.56,77.0,0.0,13.11
1312,klyuchi,ru,1503153,52.25,79.17,40.04,80.0,20.0,8.52
1313,lata,sb,,,,,,,
1314,mrirt,ma,,,,,,,
1315,ilulissat,gl,3423146,69.22,-51.1,37.4,69.0,75.0,24.16
1316,codrington,ag,,,,,,,
1317,santa fe,pa,3701195,8.66,-78.16,79.19,97.0,92.0,3.15
1318,cape town,za,3369157,-33.93,18.42,67.53,49.0,0.0,11.41
1319,puerto princesa,ph,1692685,9.74,118.73,79.82,100.0,8.0,9.53
1320,tsihombe,mg,,,,,,,
1321,ewa beach,us,5855051,21.32,-158.01,69.76,77.0,1.0,4.7
1322,vysokaya gora,ru,,,,,,,
1323,hobart,au,2163355,-42.88,147.33,58.19,62.0,0.0,8.05
1324,cape town,za,3369157,-33.93,18.42,67.53,49.0,0.0,11.41
1325,hilo,us,5855927,19.71,-155.08,67.84,72.0,40.0,5.82
1326,ohara,jp,1857910,35.12,135.83,36.18,42.0,92.0,7.63
1327,tsihombe,mg,,,,,,,
1328,serebryansk,kz,1519395,49.68,83.3,35.0,82.0,0.0,1.92
1329,barrow,us,4252975,39.51,-90.4,55.06,64.0,90.0,16.11
1330,butaritari,ki,2110227,3.07,172.79,77.21,100.0,76.0,6.06
1331,north bend,us,5742974,43.41,-124.22,54.09,93.0,90.0,3.36
1332,luganville,vu,2136150,-15.51,167.18,80.99,100.0,88.0,6.4
1333,atuona,pf,4020109,-9.8,-139.03,81.98,100.0,0.0,12.21
1334,lebu,cl,3883457,-37.62,-73.65,58.13,87.0,0.0,22.62
1335,port hedland,au,2063042,-20.31,118.58,77.0,94.0,0.0,9.17
1336,busselton,au,2075265,-33.64,115.35,58.24,44.0,0.0,22.28
1337,airai,pw,,,,,,,
1338,chumikan,ru,2025256,54.72,135.31,9.62,75.0,0.0,2.93
1339,saint-augustin,ca,6138501,45.63,-73.98,41.59,51.0,90.0,4.7
1340,salalah,om,286621,17.01,54.1,80.6,74.0,20.0,6.93
1341,rikitea,pf,4030556,-23.12,-134.97,75.68,100.0,92.0,15.79
1342,talnakh,ru,1490256,69.49,88.39,17.0,72.0,48.0,3.04
1343,jamestown,sh,3370903,-15.94,-5.72,77.21,99.0,92.0,16.13
1344,saint-pierre,pm,3424934,46.77,-56.17,35.24,64.0,0.0,25.28
1345,taolanaro,mg,,,,,,,
1346,ingham,au,2162737,-18.65,146.16,78.56,96.0,88.0,16.13
1347,mataura,pf,,,,,,,
1348,mataura,pf,,,,,,,
1349,provideniya,ru,4031574,64.42,-173.23,21.32,100.0,8.0,11.65
1350,lavrentiya,ru,4031637,65.58,-170.99,24.29,96.0,64.0,6.4
1351,kodiak,us,4407665,39.95,-94.76,43.29,75.0,90.0,10.29
1352,taolanaro,mg,,,,,,,
1353,albany,au,2077963,-35.02,117.88,59.0,93.0,75.0,9.17
1354,albany,au,2077963,-35.02,117.88,59.0,93.0,75.0,9.17
1355,punta arenas,cl,3874787,-53.16,-70.91,54.55,50.0,40.0,29.97
1356,yellowknife,ca,6185377,62.45,-114.38,5.72,71.0,20.0,14.99
1357,faya,td,,,,,,,
1358,busselton,au,2075265,-33.64,115.35,58.24,44.0,0.0,22.28
1359,busselton,au,2075265,-33.64,115.35,58.24,44.0,0.0,22.28
1360,butaritari,ki,2110227,3.07,172.79,77.21,100.0,76.0,6.06
1361,luau,ao,876177,-10.71,22.22,80.9,45.0,44.0,3.71
1362,avarua,ck,4035715,-21.21,-159.78,78.8,83.0,8.0,18.34
1363,ancud,cl,3899695,-41.87,-73.83,59.0,67.0,75.0,8.05
1364,tabou,ci,2281120,4.42,-7.36,86.39,95.0,12.0,9.08
1365,tasiilaq,gl,3424607,65.61,-37.64,23.0,85.0,90.0,20.8
1366,itarema,br,3393692,-2.92,-39.92,81.62,98.0,56.0,5.5
1367,ponta do sol,cv,3374346,17.2,-25.09,77.0,53.0,40.0,11.41
1368,bluff,nz,2206939,-46.6,168.33,44.01,91.0,56.0,11.21
1369,puerto ayora,ec,3652764,-0.74,-90.35,83.88,70.0,20.0,10.29
1370,pontianak,id,1630789,-0.02,109.34,79.64,93.0,64.0,1.92
1371,pisco,pe,3932145,-13.71,-76.2,71.6,30.0,0.0,10.29
1372,leua,ao,876233,-11.65,20.45,84.2,39.0,20.0,8.05
1373,kavieng,pg,2094342,-2.57,150.8,84.14,99.0,48.0,10.65
1374,deputatskiy,ru,2028164,69.3,139.9,-10.81,34.0,8.0,2.71
1375,cape town,za,3369157,-33.93,18.42,67.53,49.0,0.0,11.41
1376,coquimbo,cl,3893629,-29.95,-71.34,66.2,72.0,75.0,5.82
1377,kapaa,us,5848280,22.08,-159.32,68.52,78.0,75.0,10.29
1378,yellowknife,ca,6185377,62.45,-114.38,5.72,71.0,20.0,14.99
1379,huarmey,pe,3939168,-10.07,-78.15,73.79,71.0,88.0,3.6
1380,torbay,ca,6167817,47.66,-52.73,37.53,37.0,20.0,29.97
1381,rikitea,pf,4030556,-23.12,-134.97,75.68,100.0,92.0,15.79
1382,bandar-e anzali,ir,141679,37.47,49.46,69.8,32.0,40.0,11.41
1383,mataura,pf,,,,,,,
1384,olafsvik,is,,,,,,,
1385,kushmurun,kz,,,,,,,
1386,zhireken,ru,2012510,52.82,117.29,27.8,49.0,0.0,8.08
1387,upernavik,gl,3418910,72.79,-56.15,14.03,100.0,44.0,19.04
1388,broken hill,au,2173911,-31.97,141.45,62.6,45.0,0.0,4.7
1389,rikitea,pf,4030556,-23.12,-134.97,75.68,100.0,92.0,15.79
1390,isabela,us,,,,,,,
1391,dolores,ar,3435038,-36.31,-57.68,84.59,64.0,32.0,15.01
1392,cape town,za,3369157,-33.93,18.42,67.53,49.0,0.0,11.41
1393,alvand,ir,119505,36.19,50.06,48.2,66.0,40.0,2.24
1394,ushuaia,ar,3833367,-54.81,-68.31,51.8,62.0,20.0,23.04
1395,fort saint john,ca,,,,,,,
1396,puerto ayora,ec,3652764,-0.74,-90.35,83.88,70.0,20.0,10.29
1397,banda aceh,id,1215502,5.56,95.32,74.78,100.0,24.0,2.59
1398,ushuaia,ar,3833367,-54.81,-68.31,51.8,62.0,20.0,23.04
1399,dikson,ru,1507390,73.51,80.55,23.12,98.0,32.0,26.19
1400,bayshore gardens,us,4146934,27.43,-82.59,71.37,83.0,75.0,11.41
1401,ponta do sol,cv,3374346,17.2,-25.09,77.0,53.0,40.0,11.41
1402,cape town,za,3369157,-33.93,18.42,67.53,49.0,0.0,11.41
1403,severo-yeniseyskiy,ru,1492566,60.37,93.04,32.84,80.0,88.0,9.42
1404,kushiro,jp,2129072,43.11,144.15,20.24,75.0,88.0,2.59
1405,san jose,gt,3590069,16.98,-89.9,87.92,51.0,32.0,4.5
1406,zhigansk,ru,2012530,66.77,123.37,26.09,77.0,48.0,7.52
1407,mount isa,au,2065594,-20.73,139.49,69.8,64.0,0.0,8.05
1408,tuktoyaktuk,ca,6170031,69.44,-133.03,-0.41,77.0,40.0,10.29
1409,rikitea,pf,4030556,-23.12,-134.97,75.68,100.0,92.0,15.79
1410,muravlenko,ru,1540711,63.79,74.5,24.92,84.0,12.0,14.56
1411,kapaa,us,5848280,22.08,-159.32,68.52,78.0,75.0,10.29
1412,albany,au,2077963,-35.02,117.88,59.0,93.0,75.0,9.17
1413,ushuaia,ar,3833367,-54.81,-68.31,51.8,62.0,20.0,23.04
1414,port blair,in,1259385,11.67,92.75,84.59,100.0,0.0,1.92
1415,camacha,pt,2270385,33.08,-16.33,59.0,77.0,40.0,13.87
1416,bengkulu,id,,,,,,,
1417,ushuaia,ar,3833367,-54.81,-68.31,51.8,62.0,20.0,23.04
1418,rawson,ar,3839307,-43.3,-65.11,77.12,25.0,0.0,16.13
1419,hovd,mn,1516048,48.01,91.64,29.24,73.0,0.0,2.48
1420,dikson,ru,1507390,73.51,80.55,23.12,98.0,32.0,26.19
1421,vaini,to,4032243,-21.2,-175.2,75.2,83.0,20.0,8.05
1422,coquimbo,cl,3893629,-29.95,-71.34,66.2,72.0,75.0,5.82
1423,bubaque,gw,2374583,11.28,-15.83,87.56,77.0,0.0,13.11
1424,rikitea,pf,4030556,-23.12,-134.97,75.68,100.0,92.0,15.79
1425,prince albert,ca,6113335,53.2,-105.75,26.6,45.0,75.0,16.11
1426,chokurdakh,ru,2126123,70.62,147.9,3.05,65.0,64.0,2.93
1427,tuktoyaktuk,ca,6170031,69.44,-133.03,-0.41,77.0,40.0,10.29
1428,rikitea,pf,4030556,-23.12,-134.97,75.68,100.0,92.0,15.79
1429,bengkulu,id,,,,,,,
1430,rikitea,pf,4030556,-23.12,-134.97,75.68,100.0,92.0,15.79
1431,rikitea,pf,4030556,-23.12,-134.97,75.68,100.0,92.0,15.79
1432,port hedland,au,2063042,-20.31,118.58,77.0,94.0,0.0,9.17
1433,ballina,au,2177069,-28.87,153.57,64.09,93.0,75.0,5.82
1434,vydrino,ru,2013225,51.46,104.64,32.0,37.0,44.0,5.99
1435,illoqqortoormiut,gl,,,,,,,
1436,avarua,ck,4035715,-21.21,-159.78,78.8,83.0,8.0,18.34
1437,bluff,nz,2206939,-46.6,168.33,44.01,91.0,56.0,11.21
1438,springdale,ca,6154159,49.5,-56.06,35.01,49.0,48.0,8.99
1439,horta,pt,2743292,40.42,-8.49,60.35,67.0,20.0,19.46
1440,tasiilaq,gl,3424607,65.61,-37.64,23.0,85.0,90.0,20.8
1441,rumonge,bi,423549,-3.97,29.44,75.32,100.0,24.0,3.04
1442,mataura,pf,,,,,,,
1443,tiarei,pf,4033356,-17.53,-149.33,80.29,83.0,75.0,14.99
1444,kapaa,us,5848280,22.08,-159.32,68.52,78.0,75.0,10.29
1445,namatanai,pg,2090021,-3.66,152.44,80.81,100.0,80.0,8.41
1446,cherskiy,ru,2126199,68.75,161.3,28.97,81.0,92.0,7.4
1447,quatre cocos,mu,1106643,-20.21,57.76,78.1,78.0,20.0,7.4
1448,ilulissat,gl,3423146,69.22,-51.1,37.4,69.0,75.0,24.16
1449,kachikau,bw,,,,,,,
1450,vaini,to,4032243,-21.2,-175.2,75.2,83.0,20.0,8.05
1451,simpang,id,6705237,4.36,96.17,80.45,100.0,48.0,4.72
1452,dikson,ru,1507390,73.51,80.55,23.12,98.0,32.0,26.19
1453,paris,us,4647963,36.3,-88.33,56.01,35.0,1.0,6.93
1454,mersing,my,1732826,2.43,103.84,79.64,95.0,48.0,2.59
1455,lorengau,pg,2092164,-2.02,147.27,83.42,96.0,76.0,11.1
1456,fevralsk,ru,,,,,,,
1457,barentsburg,sj,,,,,,,
1458,nikolskoye,ru,546105,59.7,30.79,35.51,55.0,0.0,4.47
1459,norman wells,ca,6089245,65.28,-126.83,10.4,66.0,75.0,16.11
1460,bambous virieux,mu,1106677,-20.34,57.76,77.92,78.0,20.0,7.4
1461,mount isa,au,2065594,-20.73,139.49,69.8,64.0,0.0,8.05
1462,castro,cl,3896218,-42.48,-73.76,59.0,67.0,75.0,8.05
1463,haifa,il,294801,32.82,35.0,56.75,67.0,20.0,2.24
1464,albany,au,2077963,-35.02,117.88,59.0,93.0,75.0,9.17
1465,hermanus,za,3366880,-34.42,19.24,66.34,79.0,20.0,8.99
1466,nhulunbuy,au,2064735,-12.18,136.78,80.6,88.0,75.0,9.17
1467,rikitea,pf,4030556,-23.12,-134.97,75.68,100.0,92.0,15.79
1468,mataura,pf,,,,,,,
1469,albany,au,2077963,-35.02,117.88,59.0,93.0,75.0,9.17
1470,rio grande,br,3451138,-32.03,-52.1,86.0,66.0,20.0,4.7
1471,butaritari,ki,2110227,3.07,172.79,77.21,100.0,76.0,6.06
1472,barrow,us,4252975,39.51,-90.4,55.06,64.0,90.0,16.11
1473,rikitea,pf,4030556,-23.12,-134.97,75.68,100.0,92.0,15.79
1474,arraial do cabo,br,3471451,-22.97,-42.02,83.55,45.0,20.0,5.82
1475,sorland,no,3137469,67.67,12.69,38.82,80.0,40.0,14.99
1476,pangai,to,4032369,-19.8,-174.35,77.0,69.0,20.0,9.17
1477,puerto ayora,ec,3652764,-0.74,-90.35,83.88,70.0,20.0,10.29
1478,saint-philippe,re,935215,-21.36,55.77,75.92,61.0,0.0,4.7
1479,okuchi,jp,1854246,32.07,130.62,41.57,66.0,88.0,3.6
1480,camacha,pt,2270385,33.08,-16.33,59.0,77.0,40.0,13.87
1481,vaini,to,4032243,-21.2,-175.2,75.2,83.0,20.0,8.05
1482,upernavik,gl,3418910,72.79,-56.15,14.03,100.0,44.0,19.04
1483,rikitea,pf,4030556,-23.12,-134.97,75.68,100.0,92.0,15.79
1484,karakendzha,tj,,,,,,,
1485,busselton,au,2075265,-33.64,115.35,58.24,44.0,0.0,22.28
1486,rikitea,pf,4030556,-23.12,-134.97,75.68,100.0,92.0,15.79
1487,fairbanks,us,5861897,64.84,-147.72,30.13,86.0,1.0,3.6
1488,palmer,us,5871146,61.6,-149.11,32.81,80.0,1.0,6.93
1489,rikitea,pf,4030556,-23.12,-134.97,75.68,100.0,92.0,15.79
1490,acajutla,sv,3587498,13.59,-89.83,90.62,42.0,0.0,5.39
1491,saskylakh,ru,2017155,71.97,114.09,23.39,85.0,80.0,4.05
1492,portland,au,2152668,-33.35,149.98,51.01,98.0,0.0,1.01
1493,butaritari,ki,2110227,3.07,172.79,77.21,100.0,76.0,6.06
1494,leningradskiy,ru,2123814,69.38,178.42,11.6,83.0,44.0,12.21
1495,hobart,au,2163355,-42.88,147.33,58.19,62.0,0.0,8.05
1496,ponta do sol,pt,2264557,32.67,-17.1,55.94,72.0,75.0,19.46
1497,lompoc,us,5367788,34.64,-120.46,60.87,72.0,40.0,5.17
1498,hithadhoo,mv,1282256,-0.6,73.08,84.59,100.0,32.0,7.4
1499,taolanaro,mg,,,,,,,
